ID_ES,COD_CATALOGO_ES,NOMBRE_ES,CATEGORIA_ES,CLASE_ES,TIPO_ES,ESTADO,DEPARTAMENTO,MUNICIPIO,LATITUD,LONGITUD,FECHA_INSTALACION,FECHA_SUSPENSION
1,11010010,VUELTA LA ,PM,MET,CON,ACT,CHOCÓ,LLORÓ,5.4588611,-76.545,15/01/1943,
2,11017010,AGUASAL ,LM,HID,CON,ACT,CHOCÓ,LLORÓ,5.4736111,-76.53775,15/05/1976,
3,11020010,CARMEN DE ATRATO ,PM,MET,CON,ACT,CHOCÓ,EL CARMEN,5.9085278,-76.142083,15/10/1958,
4,11020020,GUADUAS ,PM,MET,CON,SUS,CHOCÓ,EL CARMEN,5.7666667,-76.183333,15/03/1977,15/04/2002
5,11020050,PINON EL   ,PM,MET,CON,ACT,CHOCÓ,EL CARMEN,5.7576667,-76.250861,15/10/1958,
6,11025010,MANSA LA   ,CO,MET,CON,ACT,ANTIOQUIA,CIUDAD BOLÍVAR,5.8783056,-76.084333,15/07/1973,
7,11027010,PTE LAS SANCHEZ  ,LM,HID,CON,SUS,CHOCÓ,EL CARMEN,5.8519722,-76.180806,15/08/1972,6/1/2016
8,11027020,OCHO EL ,LM,HID,CON,SUS,CHOCÓ,EL CARMEN,5.85,-76.25,15/04/1972,15/02/1979
9,11027030,SIETE EL ,LG,HID,CON,ACT,CHOCÓ,EL CARMEN,5.862,-76.152056,15/12/1979,
10,11027040,ARRAYANES LOS ,LG,HID,CON,SUS,CHOCÓ,EL CARMEN,5.8,-76.3,15/12/1979,10/12/2008
11,11027050,GINDRAMA ,LG,HID,CON,ACT,CHOCÓ,LLORÓ,5.5215556,-76.517722,15/12/1979,
12,11027060,PINON EL ,LM,HID,CON,SUS,CHOCÓ,EL CARMEN,5.7333333,-76.366667,15/03/1959,15/11/1971
13,11027070,BORAUDO AUTOM   ,LG,HID,AUS,SUS,CHOCÓ,LLORÓ,5.5146111,-76.575694,15/04/2005,5/1/2016
14,11030040,PAIMADO ,PM,MET,CON,ACT,CHOCÓ,RIO QUITO (Paimadó),5.4816111,-76.740861,15/02/1977,
15,11035010,LLORO    ,CO,MET,CON,ACT,CHOCÓ,LLORÓ,5.499,-76.538056,15/03/1983,
16,11035020,SAN ISIDRO   ,PM,MET,CON,ACT,CHOCÓ,RIO QUITO (Paimadó),5.6261667,-76.749722,15/03/1983,
17,11037010,SAN ISIDRO ,LM,HID,CON,SUS,CHOCÓ,RIO QUITO (Paimadó),5.62625,-76.749722,15/05/1967,21/09/2005
18,11037030,LA LOMA PUEBLO ,HA,HMT,AUT,ACT,CHOCÓ,RIO QUITO (Paimadó),5.5846667,-76.753278,15/04/2005,
19,11040010,TUTUNENDO ,PM,MET,CON,ACT,CHOCÓ,QUIBDÓ,5.7436111,-76.537806,15/01/1966,
20,11045010,APTO EL CARANO  ,SP,MET,CON,ACT,CHOCÓ,QUIBDÓ,5.6905556,-76.643778,15/02/1947,
21,11045030,HUAPANGO ,CO,MET,CON,SUS,CHOCÓ,QUIBDÓ,5.7,-76.633333,15/07/1966,15/11/1972
22,11047010,BELEN    ,LG,HID,CON,ACT,CHOCÓ,QUIBDÓ,5.7648333,-76.669667,15/12/1965,
23,11047020,QUIBDO AUTOM   ,LM,HID,AUT,SUS,CHOCÓ,QUIBDÓ,5.6892778,-76.662083,15/05/1974,20/09/2013
24,11047030,NEGUA ,LM,HID,CON,ACT,CHOCÓ,QUIBDÓ,5.8303056,-76.619194,15/05/1975,
25,11047040,QUIBDO AUTOMATICA ,HA,HMT,AUT,SUS,CHOCÓ,QUIBDÓ,5.6979917,-76.662258,30/11/2008,18/06/2014
26,11050010,TAGACHI ,PM,MET,CON,ACT,CHOCÓ,QUIBDÓ,6.2217778,-76.727028,15/01/1966,
27,11050020,BETE  ,PM,MET,CON,ACT,CHOCÓ,MEDIO ATRATO (Beté),5.9947222,-76.780028,15/02/1977,
28,11050030,BUEY EL  ,PM,MET,CON,ACT,CHOCÓ,MEDIO ATRATO (Beté),6.1025,-76.821361,15/02/1977,
29,11050040,CALAORRA ,PM,MET,CON,SUS,CHOCÓ,QUIBDÓ,5.7666667,-76.85,15/02/1977,15/03/1994
30,11050060,ALTO DEL BUEY ,PM,MET,CON,ACT,CHOCÓ,MEDIO ATRATO (Beté),6.1083333,-76.915639,15/02/1977,
31,11057010,TAGACHI ,LM,HID,CON,SUS,CHOCÓ,QUIBDÓ,6.2166667,-76.716667,15/04/1966,15/02/2002
32,11057020,SAN ANTONIO PADUA ,LM,HID,CON,ACT,ANTIOQUIA,VIGIA DEL FUERTE,6.2866667,-76.761806,15/05/1973,
33,11060010,BUCHADO ,PM,MET,CON,ACT,ANTIOQUIA,VIGIA DEL FUERTE,6.42,-76.779278,15/01/1969,
34,11070010,PLAYA LA-MURRY ,PM,MET,CON,SUS,ANTIOQUIA,VIGIA DEL FUERTE,6.6166667,-76.75,15/12/1966,15/02/2002
35,11070020,ROBLE EL ,PM,MET,CON,ACT,ANTIOQUIA,URRAO,6.3322222,-76.228611,15/03/1977,
36,11070030,CLARITA LA ,PM,MET,CON,ACT,ANTIOQUIA,URRAO,6.5394444,-76.158611,15/03/1977,
37,11070040,URRAO ,PM,MET,CON,SUS,ANTIOQUIA,URRAO,6.3333333,-76.166667,15/01/1969,15/07/1973
38,11070130,BRECHON EL ,PM,MET,CON,SUS,ANTIOQUIA,URRAO,6.1333333,-76.033333,15/10/1970,15/01/2000
39,11075010,HONDA LA ,CO,MET,CON,SUS,ANTIOQUIA,URRAO,6.3563889,-76.158056,15/07/1990,10/5/2011
40,11075020,URRAO    ,CO,MET,CON,SUS,ANTIOQUIA,URRAO,6.3249444,-76.139833,15/06/1973,6/1/2016
41,11077010,BELLAVISTA    ,LM,HID,CON,ACT,CHOCÓ,BOJAYÁ (Bellavista),6.5588056,-76.884472,15/05/1966,
42,11077020,MAGDALENA LA ,LG,HID,CON,ACT,ANTIOQUIA,URRAO,6.2983611,-76.134472,15/09/1972,
43,11077030,PLAYA LA ,LM,HID,CON,SUS,ANTIOQUIA,VIGIA DEL FUERTE,6.6166667,-76.75,15/09/1975,15/02/2002
44,11080010,BELLAVISTA ,PM,MET,CON,ACT,CHOCÓ,BOJAYÁ (Bellavista),6.5591667,-76.885417,15/07/1966,
45,11080030,LOMA LA-BOJAYA ,PM,MET,CON,SUS,CHOCÓ,BOJAYÁ (Bellavista),6.5333333,-76.983333,15/01/1967,15/08/1980
46,11085010,LOMA LA ,AM,MET,CON,SUS,CHOCÓ,BOJAYÁ (Bellavista),6.5333333,-76.983333,15/09/1980,15/07/2000
47,11090010,OPOGADO ,PM,MET,CON,ACT,CHOCÓ,BOJAYÁ (Bellavista),6.8125278,-76.972722,15/04/1977,
48,11100010,VIGIA DE CURVARADO ,PM,MET,CON,SUS,CHOCÓ,CARMEN DEL DARIÉN  ,7.0833333,-76.916667,15/06/1972,15/02/2002
49,11100020,DOMINGODO ,PM,MET,CON,ACT,CHOCÓ,CARMEN DEL DARIÉN  ,7.1785,-77.034472,15/01/1966,
50,11100030,MURINDO ,PM,MET,CON,SUS,ANTIOQUIA,MURINDÓ,7,-76.75,15/12/1981,15/12/1986
51,11105010,MURINDO ,CO,MET,CON,SUS,ANTIOQUIA,MURINDÓ,6.9666667,-76.75,15/04/1972,15/11/1981
52,11105020,CARMEN DEL DARIEN ,CP,MET,AUT,ACT,CHOCÓ,CARMEN DEL DARIÉN  ,7.1543333,-76.977194,28/09/2005,
53,11107010,DOMINGODO    ,LM,HID,CON,ACT,CHOCÓ,CARMEN DEL DARIÉN  ,7.1785,-77.034722,15/11/1966,
54,11110010,NORMAL STA TERESA ,PM,MET,CON,ACT,ANTIOQUIA,FRONTINO,6.7633333,-76.133611,15/01/1969,
55,11110020,ABRIAQUI ,PG,MET,CON,ACT,ANTIOQUIA,ABRIAQUÍ,6.6425,-76.075,15/12/1974,
56,11110030,FUEMIA ,PM,MET,CON,ACT,ANTIOQUIA,FRONTINO,6.8580556,-76.252222,15/03/1977,
57,11110040,CAÑASGORDAS ,PM,MET,CON,SUS,ANTIOQUIA,CAÑASGORDAS,6.75,-76.033333,15/01/1966,15/12/1973
58,11110060,DABEIBA ,PM,MET,CON,SUS,ANTIOQUIA,DABEIBA,7,-76.266667,15/07/1944,15/05/1948
59,11110110,BOQUERON DE TOYO ,PG,MET,CON,SUS,ANTIOQUIA,GIRALDO,6.6994444,-75.9775,15/05/1983,10/5/2011
60,11115010,DABEIBA ,CP,MET,CON,SUS,ANTIOQUIA,DABEIBA,7,-76.266667,15/03/1972,15/11/1973
61,11115020,CAÑASGORDAS    ,CO,MET,CON,ACT,ANTIOQUIA,CAÑASGORDAS,6.7580278,-76.029667,15/07/1973,
62,11115030,NUTIBARA ,CO,MET,CON,SUS,ANTIOQUIA,FRONTINO,6.8166667,-76.25,15/07/1973,15/09/1981
63,11115040,MUSINGA    ,CO,MET,CON,ACT,ANTIOQUIA,FRONTINO,6.7779722,-76.203333,15/08/1984,
64,11117010,ANIL EL   ,LG,HID,AUS,ACT,ANTIOQUIA,URAMITA,6.8738889,-76.149583,15/03/1972,
65,11117020,DABEIBA 1 ,LM,HID,CON,SUS,ANTIOQUIA,DABEIBA,7.0166667,-76.266667,15/09/1972,15/02/1979
66,11117030,TASCON ,LG,HID,CON,SUS,ANTIOQUIA,DABEIBA,7.0833333,-76.416667,15/10/1976,15/11/2004
67,11117040,MUTATA ,LG,HID,CON,ACT,ANTIOQUIA,MUTATÁ,7.2294444,-76.438056,15/10/1976,
68,11117050,DABEIBA 2   ,LM,HID,CON,ACT,ANTIOQUIA,DABEIBA,7.0043889,-76.266389,15/09/1976,
69,11120010,SALAQUI ,PM,MET,CON,SUS,CHOCÓ,RIOSUCIO,7.4333333,-77.283333,15/11/1974,15/11/1983
70,11120040,RIOSUCIO ,PM,MET,CON,ACT,CHOCÓ,RIOSUCIO,7.4394444,-77.115278,15/09/1960,
71,11125010,TERESITA LA ,CO,MET,CON,SUS,CHOCÓ,RIOSUCIO,7,-77.5,15/03/1972,15/02/2002
72,11127010,NUEVA LA ,LM,HID,CON,SUS,CHOCÓ,RIOSUCIO,7.3166667,-77.166667,15/03/1977,15/09/1989
73,11130010,UNGUIA ,PM,MET,CON,ACT,CHOCÓ,UNGUÍA,8.0367222,-77.087861,15/11/1974,
74,11130020,HONDA LA ,PM,MET,CON,SUS,CHOCÓ,RIOSUCIO,7.5766667,-77.125556,15/04/1972,15/04/1972
75,11130030,SAUTATA ,PM,MET,CON,SUS,CHOCÓ,RIOSUCIO,7.8666667,-77.166667,15/01/1967,15/10/1971
76,11135010,SAUTATA ,CO,MET,CON,SUS,CHOCÓ,RIOSUCIO,7.85,-77.116667,15/04/1972,31/03/2008
77,11135020,BALSA LA ,CO,MET,CON,SUS,CHOCÓ,RIOSUCIO,7.5166667,-77.2,15/05/1988,15/10/1996
78,11135030,UNGUIA AUTOM   ,CP,MET,AUT,ACT,CHOCÓ,UNGUÍA,8.0367222,-77.087861,24/09/2005,
79,11140010,MARIRRIO ,PM,MET,CON,SUS,ANTIOQUIA,TURBO,8,-76.95,15/07/1987,15/07/1989
80,11145010,BAJIRA ,CO,MET,CON,SUS,CHOCÓ,RIOSUCIO,7.3833333,-76.666667,15/11/1985,15/02/1997
81,11147010,RIOSUCIO    ,LM,HID,CON,ACT,CHOCÓ,RIOSUCIO,7.4428333,-77.12125,15/12/1965,
82,11147020,BAJIRA    ,LG,HID,AUS,ACT,CHOCÓ,RIOSUCIO,7.3684444,-76.727278,15/09/1990,
83,11147030,PRIMAVERA ,LM,HID,CON,SUS,ANTIOQUIA,MUTATÁ,7.35,-76.633333,15/03/1991,15/02/1997
84,11150010,TITUMATE    ,PM,MET,CON,ACT,CHOCÓ,UNGUÍA,8.3080556,-77.075833,15/11/1974,
85,11150020,TANELA    ,PM,MET,CON,ACT,CHOCÓ,UNGUÍA,8.1629167,-77.040417,15/11/1974,
86,11150030,ACANDI ,PM,MET,CON,ACT,CHOCÓ,ACANDÍ,8.5308333,-77.276944,15/04/1980,
87,11155010,PLAYA LA ,CO,MET,CON,SUS,CHOCÓ,ACANDÍ,8.5333333,-77.283333,15/08/1971,15/01/1977
88,11155020,GLORIA LA ,CO,MET,CON,SUS,CHOCÓ,UNGUÍA,8.2666667,-77.066667,15/04/1980,15/12/1986
89,11155030,CAPURGANA AUTOMATICA ,CP,MET,AUT,ACT,CHOCÓ,ACANDÍ,8.61625,-77.328194,16/04/2007,
90,11159010,CAPURGANA AUTOM   ,MR,HMT,AUT,ACT,CHOCÓ,ACANDÍ,8.61625,-77.328194,15/08/1995,
91,12010010,TORMENTO EL ,PM,MET,CON,ACT,ANTIOQUIA,TURBO,7.7663889,-76.855278,15/01/1972,
92,12010020,PALMERA LA ,PM,MET,CON,SUS,ANTIOQUIA,CHIGORODÓ,7.5383333,-76.605556,15/03/1972,15/02/1991
93,12010030,BARRANQUILLITA    ,PM,MET,CON,ACT,ANTIOQUIA,CHIGORODÓ,7.5711111,-76.6975,15/12/1974,
94,12010040,TULENAPA ,PM,MET,CON,SUS,ANTIOQUIA,CHIGORODÓ,7.6666667,-76.666667,15/08/1974,15/08/1982
95,12010050,TOSCANA LA   ,PM,MET,CON,ACT,ANTIOQUIA,CAREPA,7.8080556,-76.703056,15/07/1977,
96,12010060,LORENA LA   ,PM,MET,CON,ACT,ANTIOQUIA,APARTADÓ,7.8630556,-76.689167,15/07/1976,
97,12010070,CASCO EL   ,PM,MET,CON,ACT,ANTIOQUIA,APARTADÓ,7.8844444,-76.647778,15/07/1977,
98,12010080,STA ISABEL ,PM,MET,CON,SUS,ANTIOQUIA,CAREPA,7.75,-76.666667,15/07/1977,15/04/1994
99,12010090,TRIGANA    ,PM,MET,CON,ACT,ANTIOQUIA,CAREPA,7.7476667,-76.711889,15/06/1977,
100,12010100,EUPOL    ,PM,MET,CON,ACT,ANTIOQUIA,TURBO,7.9455278,-76.617389,15/07/1977,
101,12010110,PRADO MAR   ,PM,MET,CON,ACT,ANTIOQUIA,TURBO,7.9874167,-76.638528,15/07/1977,
102,12010120,STA MARTHA   ,PM,MET,CON,ACT,ANTIOQUIA,TURBO,7.9238333,-76.649083,15/07/1977,
103,12010130,CHIGORODO ,PM,MET,CON,SUS,ANTIOQUIA,CHIGORODÓ,7.7,-76.7,15/01/1966,15/03/1972
104,12010140,RIOGRANDE ,PM,MET,CON,SUS,ANTIOQUIA,TURBO,7.9333333,-76.633333,15/01/1972,15/07/1977
105,12010150,VILLA ARTEAGA ,PM,MET,CON,SUS,ANTIOQUIA,MUTATÁ,7.45,-76.616667,15/01/1946,15/03/1972
106,12010160,SAN JOSE APARTADO ,PG,MET,CON,SUS,ANTIOQUIA,APARTADÓ,7.8666667,-76.6,15/08/1984,15/12/1997
107,12010170,NUEVO ORIENTE   ,PG,MET,CON,ACT,ANTIOQUIA,TURBO,7.4603333,-76.689556,15/03/1991,
108,12010180,CHOROMANDO HDA ,PG,MET,CON,SUS,ANTIOQUIA,TURBO,7.95,-76.583333,15/08/1984,15/10/1997
109,12015010,VILLARTEAGA ,CO,MET,CON,ACT,ANTIOQUIA,MUTATÁ,7.3346667,-76.486028,15/03/1972,
110,12015020,UNIBAN    ,AM,MET,CON,ACT,ANTIOQUIA,APARTADÓ,7.8259167,-76.651333,15/08/1977,
111,12015030,IDEMA-MONTECRISTO ,CO,MET,CON,SUS,ANTIOQUIA,CHIGORODÓ,7.65,-76.683333,15/03/1972,15/08/1982
112,12015040,NEGRA LA 1 ,ME,MET,CON,SUS,ANTIOQUIA,TURBO,7.95,-76.683333,15/07/1977,15/12/1982
113,12015050,RIOGRANDE ,CO,MET,CON,SUS,ANTIOQUIA,TURBO,7.9166667,-76.633333,15/09/1982,15/12/1992
114,12015060,TULENAPA    ,CO,MET,CON,SUS,ANTIOQUIA,CAREPA,7.7739444,-76.66575,15/08/1982,6/1/2016
115,12015070,APTO LOS CEDROS  ,SP,MET,CON,ACT,ANTIOQUIA,CAREPA,7.8163889,-76.717889,15/05/1983,
116,12015080,CERRAZON LA ,AM,MET,CON,SUS,ANTIOQUIA,CHIGORODÓ,7.7166667,-76.616667,15/08/1986,15/02/2002
117,12015090,PALMERA LA ,CO,MET,CON,SUS,ANTIOQUIA,CHIGORODÓ,7.5383333,-76.605556,15/03/1991,17/02/2010
118,12015100,PISTA INDIRA AUTOM  ,AM,MET,AUT,ACT,ANTIOQUIA,TURBO,7.94075,-76.696167,20/09/2005,
119,12015110,CHIGORODO AUTOM   ,AM,MET,AUT,ACT,ANTIOQUIA,CHIGORODÓ,7.6711389,-76.694056,18/09/2005,
120,12017010,CHIGORODO    ,LM,HID,CON,ACT,ANTIOQUIA,CHIGORODÓ,7.6730556,-76.683917,15/10/1976,
121,12017020,BARRANQUILLITA    ,LM,HID,CON,ACT,ANTIOQUIA,CHIGORODÓ,7.5715833,-76.710556,15/03/1977,
122,12017030,VICTORIA LA ,LM,HID,CON,SUS,ANTIOQUIA,APARTADÓ,7.8166667,-76.683333,15/03/1977,15/05/1996
123,12017040,RIOGRANDE ,LM,HID,CON,ACT,ANTIOQUIA,TURBO,7.9278333,-76.621111,15/07/1977,
124,12017050,PTE CARRETERA ,LM,HID,CON,SUS,ANTIOQUIA,APARTADÓ,7.8238889,-76.648056,15/03/1977,10/5/2011
125,12017060,APARTADO ,LM,HID,CON,SUS,ANTIOQUIA,APARTADÓ,7.87575,-76.622583,15/03/1977,10/3/2013
126,12017070,CERRAZON LA   ,LG,HID,AUS,ACT,ANTIOQUIA,CHIGORODÓ,7.7208611,-76.576361,15/09/1986,
127,12017080,CAREPA ,LM,HID,CON,SUS,ANTIOQUIA,CAREPA,7.7633611,-76.65825,15/03/1977,1/10/2011
128,12017100,VILLARTEAGA    ,LG,HID,AUS,ACT,ANTIOQUIA,MUTATÁ,7.4132222,-76.599611,15/09/1990,
129,12020010,PUEBLO BELLO   ,PM,MET,CON,ACT,ANTIOQUIA,TURBO,8.2041667,-76.524722,15/04/1972,
130,12020040,NUEVA ANTIOQUIA ,PM,MET,CON,SUS,ANTIOQUIA,TURBO,8.05,-76.55,15/02/1987,15/01/1996
131,12020170,PLAYONA LA ,PG,MET,CON,SUS,ANTIOQUIA,TURBO,8.1833333,-76.65,15/08/1984,15/10/1992
132,12025010,APTO GONZALO ,CO,MET,CON,SUS,ANTIOQUIA,TURBO,8.1166667,-76.733333,15/07/1931,15/02/1984
133,12025020,CARIBIA ,CO,MET,CON,SUS,ANTIOQUIA,NECOCLÍ,8.5,-76.683333,15/04/1972,15/09/1983
134,12025030,MELLITO EL   ,CO,MET,CON,ACT,ANTIOQUIA,NECOCLÍ,8.5426667,-76.673361,15/09/1983,
135,12025040,TURBO ,CO,MET,CON,SUS,ANTIOQUIA,TURBO,8.0918056,-76.716333,15/04/1984,28/08/2014
136,12027010,PUEBLO BELLO   ,LM,HID,CON,ACT,ANTIOQUIA,TURBO,8.2040556,-76.524667,15/08/1977,
137,12027030,TRES EL ,LM,HID,CON,SUS,ANTIOQUIA,TURBO,8.0650278,-76.65775,15/02/1977,10/5/2011
138,12027040,CURRULAO ,LM,HID,CON,SUS,ANTIOQUIA,TURBO,7.9944167,-76.63175,15/09/1977,10/5/2011
139,12027050,PUEBLO NUEVO   ,LM,HID,CON,ACT,ANTIOQUIA,NECOCLÍ,8.4150556,-76.629389,15/08/1978,
140,12027060,DOS EL ,LM,HID,CON,SUS,ANTIOQUIA,TURBO,8.1265,-76.693833,15/08/1984,18/08/2011
141,12037050,SAN PEDRO ,LM,HID,CON,SUS,ANTIOQUIA,SAN PEDRO DE URABÁ,8.2778056,-76.391306,15/06/1980,20/10/2010
142,13015010,URRA 2 ,CO,MET,CON,SUS,CÓRDOBA,TIERRALTA,7.7333333,-76.2,15/11/1982,15/12/1988
143,13017030,SALTO VIEJO ,LG,HID,CON,SUS,CÓRDOBA,TIERRALTA,7.7833333,-76.233333,15/03/1974,15/12/1988
144,23020090,MARULANDA    ,PM,MET,CON,ACT,CALDAS,MARULANDA,5.2781667,-75.267139,15/08/1974,
145,23050420,ARGELIA ANTIOQUIA   ,PG,MET,AUT,ACT,ANTIOQUIA,ARGELIA,5.7311389,-75.138528,23/10/2007,
146,23055070,ARGELIA    ,ME,MET,CON,ACT,ANTIOQUIA,ARGELIA,5.7312222,-75.138639,15/07/1977,
147,23070020,RIO CLARO ,PG,MET,CON,ACT,ANTIOQUIA,SONSÓN,5.8555278,-74.848361,1/9/2009,
148,23075010,RIO CLARO ,CP,MET,CON,SUS,ANTIOQUIA,SONSÓN,5.8555278,-74.848361,15/11/1985,17/02/2010
149,23080200,ARGELIA ,PM,MET,CON,SUS,ANTIOQUIA,ARGELIA,5.7312222,-75.138639,15/01/1937,15/12/1937
150,23080390,STO DOMINGO   ,PG,MET,CON,ACT,ANTIOQUIA,SANTO DOMINGO,6.4683056,-75.163806,15/04/1986,
151,23080400,SAN CARLOS ,PM,MET,CON,SUS,ANTIOQUIA,SAN CARLOS,6.2,-74.983333,15/08/1963,15/04/1965
152,23080490,SAN CARLOS ,PG,MET,CON,SUS,ANTIOQUIA,SAN CARLOS,6.2,-74.983333,15/02/1968,15/04/1992
153,23080630,TOPACIO EL ,PG,MET,CON,SUS,ANTIOQUIA,SAN RAFAEL,6.3833333,-74.983333,15/05/1973,15/11/1991
154,23080640,MARINILLA    ,PM,MET,CON,ACT,ANTIOQUIA,MARINILLA,6.1710833,-75.328,15/06/1973,
155,23080650,CAMPOALEGRE    ,PM,MET,CON,ACT,ANTIOQUIA,CARMEN DE VIBORAL,6.0737778,-75.335611,15/06/1973,
156,23080660,MORRO EL ,PG,MET,CON,SUS,ANTIOQUIA,SANTO DOMINGO,6.4666667,-75.133333,15/05/1973,15/04/1986
157,23080680,ALEJANDRIA ,PM,MET,CON,SUS,ANTIOQUIA,ALEJANDRÍA,6.3833333,-75.15,15/06/1973,15/09/1988
158,23080730,TEJAR EL ,PG,MET,CON,SUS,ANTIOQUIA,SAN RAFAEL,6.3,-75.033333,15/05/1973,15/05/1994
159,23080740,CONCEPCION    ,PM,MET,CON,ACT,ANTIOQUIA,CONCEPCIÓN,6.3969444,-75.259167,15/05/1975,
160,23080750,COCORNA    ,PM,MET,CON,ACT,ANTIOQUIA,COCORNÁ,6.0533333,-75.182611,15/05/1975,
161,23080760,SAN ROQUE   ,PM,MET,CON,ACT,ANTIOQUIA,SAN ROQUE,6.4875,-75.017,15/05/1975,
162,23080790,LINDA LA ,PM,MET,CON,SUS,ANTIOQUIA,CARMEN DE VIBORAL,5.95,-75.283333,15/02/1982,15/11/2004
163,23080800,PATIO BONITO ,PG,MET,CON,SUS,ANTIOQUIA,SAN CARLOS,6.1833333,-74.9,15/11/1982,15/11/2000
164,23080810,JORDAN EL   ,PG,MET,CON,ACT,ANTIOQUIA,SAN CARLOS,6.2495,-74.828111,15/11/1982,
165,23080820,TAFETANES    ,PM,MET,CON,ACT,ANTIOQUIA,GRANADA,6.1467222,-75.11775,15/05/1983,
166,23080910,MEDIOS LOS ,PG,MET,CON,SUS,ANTIOQUIA,GRANADA,6.1333333,-75.083333,15/06/1991,15/03/1999
167,23080920,SANTUARIO    ,PG,MET,CON,ACT,ANTIOQUIA,SANTUARIO,6.1330556,-75.273583,15/05/1992,
168,23080930,POPO EL ,PG,MET,CON,SUS,ANTIOQUIA,SAN CARLOS,6.2,-74.983333,15/05/1992,15/08/2002
169,23080940,PRESA SAN LORENZO  ,PG,MET,CON,ACT,ANTIOQUIA,ALEJANDRÍA,6.3845833,-74.996778,15/07/1992,
170,23080950,VIENTO EL ,PG,MET,CON,SUS,ANTIOQUIA,ALEJANDRÍA,6.4,-75.1,15/08/1992,15/11/2004
171,23085010,CALDERAS ,CP,MET,CON,SUS,ANTIOQUIA,SAN CARLOS,6.15,-75.066667,15/08/1985,15/07/1988
172,23085020,RADIO FARO ,CO,MET,CON,SUS,ANTIOQUIA,ALEJANDRÍA,6.3833333,-75.15,15/03/1987,15/05/1987
173,23085030,ALEJANDRIA    ,CO,MET,CON,ACT,ANTIOQUIA,ALEJANDRÍA,6.37625,-75.143389,15/09/1988,
174,23085040,SELVA LA ,AM,MET,CON,SUS,ANTIOQUIA,RIONEGRO,6.1319167,-75.414556,15/05/1958,28/08/2014
175,23085080,NUS GJA EXP EL ,CP,MET,CON,ACT,ANTIOQUIA,SAN ROQUE,6.4835833,-74.836694,15/05/1972,
176,23085100,CARMELO EL HDA  ,AM,MET,CON,SUS,ANTIOQUIA,LA CEJA,6.0333333,-75.4,15/06/1973,15/09/1976
177,23085110,PENOL EL   ,CO,MET,CON,ACT,ANTIOQUIA,PEÑOL,6.2142222,-75.241306,15/06/1973,
178,23085130,SAN CARLOS ,CO,MET,CON,SUS,ANTIOQUIA,SAN CARLOS,6.2,-74.983333,15/05/1973,15/09/1980
179,23085140,SAN FRANCISCO   ,CO,MET,CON,ACT,ANTIOQUIA,SAN FRANCISCO,5.9638056,-75.100694,15/06/1973,
180,23085160,CORRIENTES    ,CO,MET,CON,ACT,ANTIOQUIA,SAN VICENTE,6.3119444,-75.253556,15/05/1975,
181,23085200,A.J M CORDOVA  ,SP,MET,CON,ACT,ANTIOQUIA,RIONEGRO,6.1686667,-75.425917,15/10/1973,
182,23085210,VIOLETAS LAS ,CP,MET,CON,SUS,ANTIOQUIA,SAN RAFAEL,6.3488889,-75.002778,15/11/1982,30/09/2011
183,23085220,SAN CARLOS ,CP,MET,CON,ACT,ANTIOQUIA,SAN CARLOS,6.1576667,-75.038917,15/05/1983,
184,23085260,LA SELVA AUTOM  ,AM,MET,AUT,ACT,ANTIOQUIA,RIONEGRO,6.1319167,-75.414556,11/10/2004,
185,23085270,A.J.M. CORDOVA   ,SP,MET,AUT,ACT,ANTIOQUIA,RIONEGRO,6.1686667,-75.425917,27/11/2006,
186,23087150,PTE REAL   ,LG,HID,AUS,ACT,ANTIOQUIA,RIONEGRO,6.1434722,-75.379944,15/05/1973,
187,23087160,CARAMANTA    ,LG,HID,AUS,ACT,ANTIOQUIA,YOLOMBÓ,6.5073333,-74.865167,15/07/1973,
188,23087180,SIRPES LOS   ,LG,HID,AUS,ACT,ANTIOQUIA,CONCEPCIÓN,6.3754444,-75.16125,15/05/1973,
189,23087190,GARRUCHA LA   ,LM,HID,CON,ACT,ANTIOQUIA,SAN LUIS,5.9983611,-74.93825,15/06/1973,
190,23087200,PAILANIA    ,LG,HID,CON,ACT,ANTIOQUIA,COCORNÁ,5.9746944,-75.117139,15/07/1973,
191,23087260,COLTEPUNTO RNS 19  ,LG,HID,CON,ACT,ANTIOQUIA,RIONEGRO,6.1689167,-75.357417,15/08/1977,
192,23087300,CASAMIA ,LM,HID,CON,SUS,ANTIOQUIA,RIONEGRO,6.1421944,-75.376556,15/05/1992,28/08/2014
193,23087480,CANAL DE FUGA ,LG,HID,CON,SUS,ANTIOQUIA,SAN CARLOS,6.2333333,-74.883333,15/03/1987,15/11/1990
194,23087660,PTE LA FERIA ,LG,HID,CON,ACT,ANTIOQUIA,MARINILLA,6.1726667,-75.337861,15/05/1992,
195,23087670,RIOTEX    ,LG,HID,AUS,ACT,ANTIOQUIA,RIONEGRO,6.18125,-75.366389,15/03/1992,
196,23087830,FRESERA LA   ,LG,HID,AUS,ACT,ANTIOQUIA,RIONEGRO,6.1997222,-75.334083,15/09/1993,
197,23090020,VIRGINIAS    ,PM,MET,CON,ACT,ANTIOQUIA,PUERTO BERRÍO,6.3935556,-74.681806,15/07/1976,
198,23097050,PTO SUIZA ,LM,HID,CON,SUS,ANTIOQUIA,PUERTO NARE,6.25,-74.566667,15/04/1977,15/11/1986
199,23100030,TIGRE EL   ,PM,MET,CON,ACT,ANTIOQUIA,VEGACHÍ,6.8404722,-74.785667,15/06/1970,
200,23100040,YOLOMBO    ,PM,MET,CON,ACT,ANTIOQUIA,YOLOMBÓ,6.5942778,-75.010917,15/04/1975,
201,23105030,VEGACHI    ,CO,MET,CON,ACT,ANTIOQUIA,VEGACHÍ,6.7741111,-74.796528,15/04/1975,
202,23105060,VEGACHI AUTOM   ,AM,MET,AUT,ACT,ANTIOQUIA,VEGACHÍ,6.7741111,-74.796528,20/11/2004,
203,23105070,MACEO AUTOMATICA ,CP,MET,AUT,ACT,ANTIOQUIA,MACEO,6.5716389,-74.794722,18/06/2005,
204,23107030,MASCOTA LA ,LG,HID,CON,ACT,ANTIOQUIA,YALÍ,6.6396389,-74.875444,15/05/1975,
205,23107040,VEGACHI    ,LM,HID,CON,ACT,ANTIOQUIA,VEGACHÍ,6.7723611,-74.797583,15/04/1975,
206,23110010,PTO BOYACA ,PM,MET,CON,SUS,BOYACÁ,PUERTO BOYACÁ,5.95,-74.6,15/08/1959,15/06/1974
207,23117040,PTO BOYACA ,LM,HID,CON,SUS,BOYACÁ,PUERTO BOYACÁ,5.9783333,-74.566667,15/08/1974,15/01/1976
208,23175020,APTO OTU   ,SS,MET,CON,ACT,ANTIOQUIA,REMEDIOS,7.01175,-74.716306,15/05/1940,
209,25020030,GUACAMAYO    ,PM,MET,CON,ACT,BOLÍVAR,ACHÍ,8.7272222,-74.512222,15/07/1966,
210,25020310,NECHI ,PM,MET,CON,SUS,ANTIOQUIA,NECHÍ,8.1,-74.833333,15/07/1966,15/05/1970
211,25020330,CAIMITAL    ,PM,MET,CON,ACT,BOLÍVAR,SAN JACINTO DEL CAUCA,8.3663889,-74.569167,15/09/1966,
212,25020350,GUARANDA    ,PM,MET,CON,ACT,BOLÍVAR,ACHÍ,8.4927778,-74.541667,15/08/1966,
213,25020370,MONEDA LA HDA  ,PM,MET,CON,ACT,ANTIOQUIA,CAUCASIA,8.0366667,-74.942222,15/05/1970,
214,25020410,CANDELARIA LA   ,PM,MET,CON,ACT,BOLÍVAR,SAN JACINTO DEL CAUCA,8.2194444,-74.72875,15/07/1966,
215,25020420,VARAS LAS   ,PM,MET,CON,ACT,BOLÍVAR,SAN JACINTO DEL CAUCA,8.3876944,-74.563,15/04/1987,
216,25020450,MONTECRISTO ,PM,MET,CON,SUS,BOLÍVAR,MONTECRISTO,8.3,-74.433333,15/07/1966,15/10/1974
217,25020510,ALPES LOS ,PM,MET,CON,SUS,BOLÍVAR,SAN JACINTO DEL CAUCA,8.4166667,-74.55,15/08/1966,15/05/2002
218,25020530,ILUSION LA   ,PM,MET,CON,ACT,ANTIOQUIA,CAUCASIA,8.0255,-75.08975,15/05/1970,
219,25020540,PATIO BONITO   ,PM,MET,CON,ACT,ANTIOQUIA,NECHÍ,8.0311111,-74.706111,15/05/1970,
220,25020800,BUENAVISTA    ,PM,MET,CON,ACT,BOLÍVAR,ACHÍ,8.5730556,-74.529722,15/04/1974,
221,25020810,ASTILLEROS ,PM,MET,CON,ACT,BOLÍVAR,SAN JACINTO DEL CAUCA,8.2913333,-74.605722,15/04/1974,
222,25020850,REGENCIA ,PM,MET,CON,SUS,BOLÍVAR,MONTECRISTO,8.1333333,-74.65,15/05/1974,15/10/1992
223,25020940,VILLANUEVA    ,PM,MET,CON,ACT,SUCRE,GUARANDA,8.3327778,-74.735556,15/04/1974,
224,25021120,SERRANIA SAN LUCAS ,PM,MET,CON,SUS,BOLÍVAR,MONTECRISTO,8.3,-74.35,15/04/1974,15/06/1986
225,25021390,CAUCASIA ,PM,MET,CON,SUS,ANTIOQUIA,CAUCASIA,8,-75.2,15/02/1959,15/04/2004
226,25021480,ESPERANZA LA RADIO  ,PM,MET,CON,ACT,ANTIOQUIA,NECHÍ,8.0319444,-74.788528,15/03/1979,
227,25021490,RAYA LA   ,PM,MET,CON,ACT,BOLÍVAR,SAN JACINTO DEL CAUCA,8.3445556,-74.561222,15/03/1979,
228,25021530,TALADRO EL ,PM,MET,CON,SUS,BOLÍVAR,SAN JACINTO DEL CAUCA,8.2666667,-74.733333,15/09/1973,15/03/1974
229,25025130,VICTORIA LA ,CO,MET,CON,SUS,BOLÍVAR,ACHÍ,8.3333333,-74.733333,15/06/1969,15/12/1971
230,25025140,NECHI ,CO,MET,CON,SUS,ANTIOQUIA,NECHÍ,8.1,-74.766667,15/05/1970,15/05/2002
231,25025200,TALADRO EL ,CO,MET,CON,SUS,BOLÍVAR,SAN JACINTO DEL CAUCA,8.2666667,-74.733333,15/06/1973,15/06/1974
232,25025230,MONTECRISTO ,CO,MET,CON,SUS,BOLÍVAR,MONTECRISTO,8.3,-74.483333,15/08/1974,15/11/2004
233,25027050,MARGENTO    ,LG,HID,CON,ACT,ANTIOQUIA,CAUCASIA,8.0254444,-75.08975,15/07/1966,
234,25027060,GUACAMAYO ,LM,HID,CON,SUS,BOLÍVAR,ACHÍ,8.7272222,-74.512222,15/07/1962,15/02/1969
235,25027130,PALANCA ,LM,HID,CON,SUS,ANTIOQUIA,CAUCASIA,8,-75.166667,15/02/1967,15/10/1977
236,25027150,GUARANDA ,LM,HID,CON,SUS,BOLÍVAR,ACHÍ,8.4927778,-74.541667,15/04/1967,15/04/2002
237,25027160,ACHI    ,LM,HID,CON,ACT,BOLÍVAR,ACHÍ,8.5599722,-74.553861,15/03/1975,
238,25027200,LAS VARAS AUTOM  ,HA,HMT,AUT,ACT,BOLÍVAR,SAN JACINTO DEL CAUCA,8.3874167,-74.563167,15/06/1966,
239,25027260,BUENAVISTA ,LM,HID,CON,SUS,BOLÍVAR,ACHÍ,8.5666667,-74.55,15/04/1967,15/03/1975
240,25027270,LAS FLORES   ,LM,HID,CON,ACT,ANTIOQUIA,NECHÍ,8.1024167,-74.773444,15/06/1968,
241,25027280,CANDELARIA LA ,LM,HID,CON,SUS,BOLÍVAR,SAN JACINTO DEL CAUCA,8.2333333,-74.716667,15/11/1966,15/05/1969
242,25027480,NECHI ,LM,HID,CON,SUS,ANTIOQUIA,NECHÍ,8.1,-74.766667,15/06/1966,15/12/1967
243,25027640,TRES CRUCES   ,LM,HID,CON,ACT,BOLÍVAR,ACHÍ,8.7030833,-74.517306,15/09/1974,
244,25027880,GALINDO ,LM,HID,CON,SUS,BOLÍVAR,SAN JACINTO DEL CAUCA,8.3,-74.583333,15/04/1975,15/05/2002
245,25027910,LA RAYA   ,LM,HID,CON,ACT,BOLÍVAR,SAN JACINTO DEL CAUCA,8.3445556,-74.561222,15/03/1975,
246,25027950,SAN JACINTO ,LM,HID,CON,SUS,BOLÍVAR,SAN JACINTO DEL CAUCA,8.25,-74.716667,15/04/1975,15/05/2002
247,25028040,INSP FLUVIAL CAUCA ,LM,HID,CON,SUS,ANTIOQUIA,CAUCASIA,7.9833333,-75.2,15/11/1992,15/05/2002
248,25028350,MANCHA LA ,LM,HID,CON,SUS,BOLÍVAR,SAN JACINTO DEL CAUCA,8.2666667,-74.583333,15/09/1979,15/07/1999
249,26160080,SALAMINA CONC BARC  ,PM,MET,CON,ACT,CALDAS,SALAMINA,5.3954444,-75.489306,15/08/1970,
250,26160090,PACORA PLAZA FERIA  ,PM,MET,CON,ACT,CALDAS,PÁCORA,5.5224444,-75.455083,15/08/1970,
251,26160160,MARIA LA   ,PM,MET,CON,ACT,CALDAS,AGUADAS,5.5875,-75.5775,15/01/1962,
252,26165030,JARDIN EL ,CO,MET,CON,SUS,ANTIOQUIA,JARDÍN,5.5833333,-75.833333,15/06/1990,15/06/1990
253,26167090,COSTA AZUL   ,LG,HID,AUS,ACT,CALDAS,SALAMINA,5.3563333,-75.492861,15/08/1984,
254,26170150,PUEBLORRICO    ,PM,MET,CON,ACT,ANTIOQUIA,PUEBLORRICO,5.7910556,-75.838806,15/09/1970,
255,26170160,NACIONAL LA GJA ,PM,MET,CON,SUS,ANTIOQUIA,TÁMESIS,5.7166667,-75.716667,15/09/1970,15/02/1978
256,26170170,PRADERA LA ,PM,MET,CON,SUS,ANTIOQUIA,CARAMANTA,5.5333333,-75.666667,15/09/1970,15/07/1987
257,26170180,CARAMANTA    ,PM,MET,CON,ACT,ANTIOQUIA,CARAMANTA,5.5478333,-75.641306,15/10/1970,
258,26170190,DIQUE EL   ,PM,MET,CON,ACT,ANTIOQUIA,JERICÓ,5.8038611,-75.723611,15/09/1970,
259,26170350,FLECHA LA ,PM,MET,CON,SUS,CALDAS,MARMATO,5.4666667,-75.616667,15/09/1990,15/02/2002
260,26175030,NACIONAL GJA LA  ,CP,MET,CON,ACT,ANTIOQUIA,TÁMESIS,5.7173333,-75.690917,15/07/1977,
261,26175040,TUNEZ HDA   ,CO,MET,CON,ACT,ANTIOQUIA,FREDONIA,5.80025,-75.650972,15/04/1975,
262,26177060,MARIA LA ,LM,HID,CON,SUS,ANTIOQUIA,CARAMANTA,5.6,-75.6,15/10/1975,15/09/2005
263,26177070,PTE CARRETERA ,LM,HID,CON,SUS,ANTIOQUIA,TÁMESIS,5.75,-75.633333,15/03/1978,15/04/1978
264,26177090,BALSOS LOS ,LM,HID,CON,SUS,ANTIOQUIA,VALPARAISO,5.7166667,-75.6,15/07/1978,15/05/2002
265,26177100,STA CLARA ,LM,HID,CON,SUS,ANTIOQUIA,CONCORDIA,5.95,-75.85,15/05/1978,15/04/2002
266,26180160,ABEJORRAL    ,PM,MET,CON,ACT,ANTIOQUIA,ABEJORRAL,5.7859722,-75.430417,15/05/1970,
267,26180170,UNION LA   ,PM,MET,CON,ACT,ANTIOQUIA,LA UNIÓN,5.9983333,-75.381389,15/05/1970,
268,26180180,SONSON    ,PG,MET,CON,ACT,ANTIOQUIA,SONSÓN,5.71525,-75.2945,15/06/1970,
269,26180190,AGUADAS    ,PM,MET,CON,ACT,CALDAS,AGUADAS,5.6000278,-75.451194,15/08/1970,
270,26180200,MONTEBELLO    ,PM,MET,CON,ACT,ANTIOQUIA,MONTEBELLO,5.9508333,-75.536833,15/10/1970,
271,26180240,PAVAS LAS   ,PG,MET,CON,ACT,CALDAS,AGUADAS,5.5221944,-75.392889,15/04/1994,
272,26180250,VALLE ALTO   ,PG,MET,CON,ACT,CALDAS,SALAMINA,5.35,-75.317778,15/04/1994,
273,26180260,MIRANDA LA ,PM,MET,CON,ACT,CALDAS,SALAMINA,5.4271667,-75.333583,15/09/1999,
274,26180270,PINTADA LA AUTOMATICA ,PG,MET,AUT,SUS,ANTIOQUIA,LA PINTADA,5.7307222,-75.608111,15/02/2009,18/08/2011
275,26185010,PELADA LA ,CO,MET,CON,ACT,CALDAS,AGUADAS,5.57875,-75.344778,15/04/1994,
276,26185020,MESOPOTAMIA    ,CO,MET,CON,ACT,ANTIOQUIA,LA UNIÓN,5.8863611,-75.318639,15/06/1970,
277,26185030,JERICO AUTOM   ,CP,MET,AUT,SUS,ANTIOQUIA,JERICÓ,5.7991667,-75.789528,28/11/2004,6/1/2016
278,26185040,SAN FELIX   ,CO,MET,CON,ACT,CALDAS,SALAMINA,5.3729444,-75.375333,15/08/1970,
279,26185050,STA BARBARA AUTOM  ,CP,MET,AUT,ACT,ANTIOQUIA,SANTA BÁRBARA,5.8595833,-75.556278,30/11/2004,
280,26187030,SONSON    ,LG,HID,AUS,ACT,ANTIOQUIA,SONSÓN,5.6951944,-75.313778,15/06/1955,
281,26187110,LA PINTADA AUTOM  ,LG,HID,AUT,ACT,ANTIOQUIA,LA PINTADA,5.7307222,-75.608111,15/10/1961,
282,26187170,LA HERENCIA   ,LG,HID,AUS,SUS,CALDAS,AGUADAS,5.57575,-75.340694,15/05/1994,28/08/2014
283,26187180,ALBANIA ,LG,HID,CON,SUS,ANTIOQUIA,SONSÓN,5.5333333,-75.333333,15/05/1994,10/12/2008
284,26187701,QUITASUENO ,LG,HID,AUT,ACT,CALDAS,AGUADAS,5.7211389,-75.552583,10/3/2014,
285,26190080,BETANIA-VOLGA ,PM,MET,CON,SUS,ANTIOQUIA,BETANIA,5.7,-75.983333,15/06/1968,15/03/1971
286,26190090,BETANIA-LAS GUACAS   ,PM,MET,CON,ACT,ANTIOQUIA,BETANIA,5.755,-75.975528,15/10/1970,
287,26190100,STA BARBARA   ,PM,MET,CON,ACT,ANTIOQUIA,ANDES,5.5639722,-75.900083,15/10/1970,
288,26190120,CAMPAMENTO ,PM,MET,CON,SUS,ANTIOQUIA,ANDES,5.6813333,-75.875583,15/05/1979,15/12/1996
289,26190130,MANSA LA ,PM,MET,CON,SUS,CHOCÓ,EL CARMEN,5.75,-76.1,15/10/1970,15/04/1973
290,26195020,ITA ANDES ,CO,MET,CON,ACT,ANTIOQUIA,ANDES,5.691,-75.880222,15/07/1970,
291,26195030,JARDIN EL ,CO,MET,CON,ACT,ANTIOQUIA,JARDÍN,5.5877222,-75.800556,15/06/1990,
292,26197010,CAMPAMENTO    ,LG,HID,AUS,ACT,ANTIOQUIA,ANDES,5.6813333,-75.875583,15/09/1971,
293,26197020,BRASILIA    ,LG,HID,AUS,SUS,ANTIOQUIA,CIUDAD BOLÍVAR,5.8254444,-75.935333,15/09/1970,6/1/2016
294,26197030,REMOLINO EL   ,LG,HID,AUS,ACT,ANTIOQUIA,CIUDAD BOLÍVAR,5.8564167,-75.9145,15/09/1971,
295,26197040,SAN ANTONIO BRASIL ,LM,HID,CON,SUS,ANTIOQUIA,CIUDAD BOLÍVAR,5.8333333,-75.95,15/09/1970,15/12/1972
296,26200120,OTRAMINA    ,PM,MET,CON,ACT,ANTIOQUIA,TITIRIBÍ,6.0729444,-75.794583,15/10/1970,
297,26200130,BOLOMBOLO    ,PM,MET,CON,ACT,ANTIOQUIA,VENECIA,5.9677778,-75.842222,15/05/1980,
298,26200140,ARMENIA    ,PM,MET,CON,ACT,ANTIOQUIA,ARMENIA,6.1579722,-75.771528,15/04/1975,
299,26200150,FREDONIA    ,PM,MET,CON,ACT,ANTIOQUIA,FREDONIA,5.93675,-75.685111,15/03/1975,
300,26205030,FARALLONES ,CO,MET,CON,SUS,ANTIOQUIA,LA PINTADA,5.7833333,-75.616667,15/03/1970,15/04/1983
301,26205040,IGUINA HDA ,CO,MET,CON,SUS,ANTIOQUIA,ANZÁ,6.3666667,-75.866667,15/10/1978,15/10/1980
302,26205060,NOQUE LA ,CO,MET,CON,SUS,ANTIOQUIA,ANZÁ,6.4,-75.833333,15/04/1981,15/05/1987
303,26205070,PLATA LA ,CP,MET,CON,SUS,ANTIOQUIA,VENECIA,5.9833333,-75.816667,15/11/1982,15/04/1995
304,26205080,ALDEA LA   ,ME,MET,CON,ACT,ANTIOQUIA,MEDELLÍN,6.3410556,-75.700944,15/09/1990,
305,26207010,PTE SOTO ,LM,HID,CON,SUS,ANTIOQUIA,TITIRIBÍ,6.0166667,-75.816667,15/09/1971,15/08/1973
306,26207030,PTE IGLESIAS   ,LG,HID,AUS,ACT,ANTIOQUIA,FREDONIA,5.8299444,-75.7055,15/07/1978,
307,26207040,RODADERO EL ,LG,HID,CON,SUS,ANTIOQUIA,VENECIA,6,-75.8,15/05/1978,10/12/2008
308,26207080,BOLOMBOLO AUTOM   ,HA,HMT,AUT,ACT,ANTIOQUIA,VENECIA,5.9659444,-75.841472,15/10/1971,
309,26207090,PASO REAL ,LG,HID,CON,SUS,ANTIOQUIA,SOPETRÁN,6.5166667,-75.816667,15/03/1972,15/11/1978
310,26210070,CAICEDO    ,PM,MET,CON,ACT,ANTIOQUIA,CAICEDO,6.4059722,-75.981278,15/10/1970,
311,26210080,HERRADURA LA   ,PM,MET,CON,ACT,ANTIOQUIA,CONCORDIA,6.0992222,-75.873972,15/10/1970,
312,26210090,ANZA    ,PM,MET,CON,ACT,ANTIOQUIA,ANZÁ,6.3031389,-75.85925,15/10/1970,
313,26210110,PENALISA    ,PM,MET,CON,ACT,ANTIOQUIA,SALGAR,5.9349167,-75.861167,15/04/1971,
314,26210130,GUASABRA    ,PM,MET,CON,ACT,ANTIOQUIA,SANTA FE DE ANTIOQUIA,6.5033333,-75.955833,15/03/1975,
315,26210140,ALTAMIRA    ,PM,MET,CON,ACT,ANTIOQUIA,BETULIA,6.2185278,-75.9455,15/04/1975,
316,26215010,CONCORDIA    ,CO,MET,CON,ACT,ANTIOQUIA,CONCORDIA,6.0395556,-75.919528,15/06/1970,
317,26215020,CAÑAFISTO ,CO,MET,CON,SUS,ANTIOQUIA,SANTA FE DE ANTIOQUIA,6.4166667,-75.816667,15/06/1987,15/04/2002
318,26217010,GALERA LA   ,LG,HID,AUS,ACT,ANTIOQUIA,SANTA FE DE ANTIOQUIA,6.5549722,-75.864194,15/11/1970,
319,26217040,CANGREJO EL ,LG,HID,CON,SUS,ANTIOQUIA,BETULIA,6.2097222,-75.860694,15/05/1978,20/10/2010
320,26217050,CAÑAFISTO    ,LG,HID,AUS,ACT,ANTIOQUIA,SANTA FE DE ANTIOQUIA,6.4179722,-75.81925,15/11/1978,
321,26217060,AGARA ,LM,HID,CON,SUS,ANTIOQUIA,ANZÁ,6.35,-75.833333,15/11/1979,15/04/2002
322,26220050,CUMBRE LA ,PG,MET,CON,SUS,ANTIOQUIA,PEQUE,7.0333333,-75.933333,15/11/1970,15/11/2004
323,26220060,TUNAL EL ,PM,MET,CON,SUS,ANTIOQUIA,SANTA FE DE ANTIOQUIA,6.5833333,-75.833333,15/12/1985,15/05/1989
324,26220090,GIRALDO    ,PM,MET,CON,ACT,ANTIOQUIA,GIRALDO,6.6880556,-75.957222,15/11/1970,
325,26220100,GRANJA LA   ,PM,MET,CON,ACT,ANTIOQUIA,ITUANGO,7.2496389,-75.734083,15/04/1975,
326,26220110,STA RITA   ,PG,MET,CON,ACT,ANTIOQUIA,ITUANGO,7.32375,-75.616861,15/09/1982,
327,26225010,ITUANGO ,CO,MET,CON,SUS,ANTIOQUIA,ITUANGO,7.2,-75.733333,15/06/1970,15/07/1977
328,26225030,COTOVE HDA   ,AM,MET,CON,SUS,ANTIOQUIA,SANTA FE DE ANTIOQUIA,6.5339167,-75.827333,15/04/1975,6/1/2016
329,26225040,PIUNTI HDA ,CO,MET,CON,SUS,ANTIOQUIA,BURITICÁ,6.7295,-75.912972,15/06/1970,15/06/1970
330,26225050,PALMAR EL ,CP,MET,CON,SUS,ANTIOQUIA,ITUANGO,7.1166667,-75.666667,15/11/1982,15/11/1992
331,26225060,HDA COTOVE AUTOM  ,AM,MET,AUT,ACT,ANTIOQUIA,SANTA FE DE ANTIOQUIA,6.5339167,-75.827333,25/11/2004,
332,26227010,PURGATORIO ,LG,HID,CON,SUS,ANTIOQUIA,BURITICÁ,6.8666667,-75.866667,15/05/1980,15/11/1995
333,26230010,OLAYA ,PM,MET,CON,ACT,ANTIOQUIA,OLAYA,6.6287222,-75.810889,15/10/1970,
334,26230020,SABANALARGA ,PM,MET,CON,SUS,ANTIOQUIA,SABANALARGA,6.846,-75.814806,15/01/1922,15/12/1966
335,26230110,SAN ANDRES ,PM,MET,CON,ACT,ANTIOQUIA,SAN ANDRÉS,6.9098333,-75.669861,15/10/1970,
336,26230130,CRUCES ARRIBA ,PM,MET,CON,ACT,ANTIOQUIA,SAN ANDRÉS,6.8871944,-75.609611,15/11/1970,
337,26230140,PLACITA LA ,PM,MET,CON,ACT,ANTIOQUIA,LIBORINA,6.7208889,-75.758056,15/10/1970,
338,26230150,MATANZAS ,PM,MET,CON,SUS,ANTIOQUIA,TOLEDO,7.0358333,-75.665944,15/11/1970,15/04/1993
339,26230160,BRICENO ,PG,MET,CON,ACT,ANTIOQUIA,BRICEÑO,7.1052778,-75.511667,15/10/1970,
340,26230180,LLANOS DE SAN JUAN ,PM,MET,CON,ACT,ANTIOQUIA,SAN JERÓNIMO,6.427,-75.71775,15/11/1990,
341,26230190,ORO EL ,PM,MET,CON,SUS,ANTIOQUIA,SABANALARGA,6.9333333,-75.766667,15/04/1975,15/10/1992
342,26230200,SABANALARGA ,PG,MET,CON,ACT,ANTIOQUIA,SABANALARGA,6.846,-75.814806,15/03/1975,
343,26230220,OCULTA LA ,PM,MET,CON,ACT,ANTIOQUIA,BELMIRA,6.7793889,-75.638583,15/09/1983,
344,26230240,ABERTURA LA ,PM,MET,CON,ACT,ANTIOQUIA,SAN ANDRÉS,6.9001944,-75.704833,15/01/1992,
345,26230260,PTO VALDIVIA AUTOM ,PG,MET,AUT,SUS,ANTIOQUIA,VALDIVIA,7.2870833,-75.396306,11/4/2008,6/5/2009
346,26235020,VEGA LA-TAB RUBIOS ,CO,MET,CON,SUS,ANTIOQUIA,SOPETRÁN,6.5333333,-75.8,15/05/1970,15/10/1978
347,26235030,MATANZAS    ,CO,MET,CON,ACT,ANTIOQUIA,TOLEDO,7.0358333,-75.665944,15/04/1993,
348,26237020,PENALTA ,LM,HID,CON,ACT,ANTIOQUIA,SAN JERÓNIMO,6.4626111,-75.756306,15/04/1971,
349,26237040,PTO VALDIVIA AUTOM  ,HA,HMT,AUT,ACT,ANTIOQUIA,VALDIVIA,7.2870833,-75.396306,15/10/1959,
350,26237050,PTE PESCADERO   ,LG,HID,CON,ACT,ANTIOQUIA,TOLEDO,7.0883333,-75.695917,15/11/1979,
351,26237060,SOPETRAN ,LM,HID,CON,SUS,ANTIOQUIA,SOPETRÁN,6.5166667,-75.75,15/03/1980,15/04/1996
352,26237080,YARUMAL ,LG,HID,CON,SUS,ANTIOQUIA,SAN ANDRÉS,7.0166667,-75.65,15/03/1980,15/04/2002
353,26237090,VALLE EL ,LM,HID,CON,SUS,ANTIOQUIA,BRICEÑO,7.0666667,-75.683333,15/03/1980,10/12/2008
354,26237100,OLAYA ,LG,HID,CON,ACT,ANTIOQUIA,OLAYA,6.6449444,-75.826167,15/10/1981,
355,26237110,CEDRAL EL ,LG,HID,CON,ACT,ANTIOQUIA,SAN JOSÉ DE LA MONTAÑA,6.8804722,-75.672472,15/05/1980,
356,26237130,LLANOS DE SAN JUAN ,LG,HID,CON,SUS,ANTIOQUIA,SAN JERÓNIMO,6.4333333,-75.716667,15/11/1990,15/12/1990
357,26240050,UNION LA HDA ,PM,MET,CON,SUS,ANTIOQUIA,CÁCERES,7.7166667,-75.35,15/05/1970,15/03/1984
358,26240060,MANIZALES ,PM,MET,CON,ACT,ANTIOQUIA,CÁCERES,7.8366667,-75.415,15/05/1970,
359,26240070,ALTO EL MUÑECO ,PM,MET,CON,SUS,ANTIOQUIA,TARAZÁ,7.6,-75.416667,15/05/1970,15/08/1984
360,26240080,HOYO RICO ,PM,MET,CON,SUS,ANTIOQUIA,TARAZÁ,7.3833333,-75.45,15/03/1975,15/05/1989
361,26240090,PTO BELGICA ,PM,MET,CON,ACT,ANTIOQUIA,CÁCERES,7.6683056,-75.284444,15/01/1977,
362,26240100,GUARUMO-LA LUCHA ,PM,MET,CON,ACT,ANTIOQUIA,CÁCERES,7.8629167,-75.214917,15/05/1970,
363,26240120,PTO VALDIVIA ,PG,MET,CON,SUS,ANTIOQUIA,VALDIVIA,7.3,-75.433333,15/03/1975,15/07/1985
364,26240150,PTO VALDIVIA ,PM,MET,CON,ACT,ANTIOQUIA,VALDIVIA,7.2860278,-75.396528,15/10/1979,
365,26240160,COQUERA LA   ,PM,MET,CON,ACT,ANTIOQUIA,CAUCASIA,7.9621389,-75.196,15/03/1980,
366,26240170,PLAYALTA ,PM,MET,CON,ACT,ANTIOQUIA,TARAZÁ,7.5625556,-75.448556,15/11/1982,
367,26245020,MARY LAND ,CO,MET,CON,SUS,ANTIOQUIA,CÁCERES,7.5,-75.416667,15/05/1970,15/04/1973
368,26245030,TARAZA ,CO,MET,CON,SUS,ANTIOQUIA,TARAZÁ,7.5833333,-75.4,15/03/1975,15/06/1985
369,26245040,JHB CAUCASIA   ,CP,MET,CON,ACT,ANTIOQUIA,CAUCASIA,8.0056389,-75.146944,13/04/2008,
370,26247010,PALMIRA HDA   ,LG,HID,AUS,ACT,ANTIOQUIA,CÁCERES,7.7967778,-75.372528,15/09/1971,
371,26247020,LA COQUERA AUTOM  ,HA,HMT,AUT,ACT,ANTIOQUIA,CAUCASIA,7.9621389,-75.196,15/08/1966,
372,26247030,APAVI    ,LG,HID,CON,ACT,ANTIOQUIA,TARAZÁ,7.4709722,-75.328028,15/10/1971,
373,26247040,BUENOS AIRES ,LG,HID,CON,SUS,ANTIOQUIA,CÁCERES,7.7333333,-75.433333,15/11/1972,15/10/1975
374,26247050,LAS CAMELIAS AUTOM  ,LG,HID,AUT,ACT,ANTIOQUIA,TARAZÁ,7.5825278,-75.420056,15/05/1973,
375,26250010,CACERES ,PM,MET,CON,SUS,ANTIOQUIA,CÁCERES,7.5790556,-75.347833,15/06/1931,15/11/1966
376,26250020,TRINIDAD LA HDA ,PM,MET,CON,SUS,ANTIOQUIA,CÁCERES,7.6833333,-75.233333,15/05/1970,15/12/1976
377,26250030,CACERES ,PM,MET,CON,ACT,ANTIOQUIA,CÁCERES,7.5790556,-75.347833,15/05/1970,
378,26250060,PTO RAUDAL ,PM,MET,CON,ACT,ANTIOQUIA,VALDIVIA,7.3699167,-75.327611,15/10/1970,
379,26250090,PIAMONTE ,PM,MET,CON,SUS,ANTIOQUIA,CÁCERES,7.7833333,-75.2,15/03/1975,15/10/1987
380,26250100,STA CRUZ HDA ,PG,MET,CON,SUS,ANTIOQUIA,CÁCERES,7.5,-75.25,15/07/1983,15/02/1984
381,26250110,BARRO BLANCO ,PM,MET,CON,ACT,ANTIOQUIA,TARAZÁ,7.4741111,-75.264389,15/03/1984,
382,26255020,STA ISABEL   ,CP,MET,CON,ACT,ANTIOQUIA,VALDIVIA,7.1572778,-75.442222,15/04/1970,
383,26255030,STA ISABEL VALDIVIA  ,AM,MET,AUT,ACT,ANTIOQUIA,VALDIVIA,7.1572778,-75.442222,21/11/2004,
384,26255040,CACAOTERAS DEL DIQ ,CP,MET,CON,SUS,ANTIOQUIA,CAUCASIA,7.9833333,-75.116667,15/08/1968,10/12/2008
385,27010160,GOMEZ PLATA ,PM,MET,CON,SUS,ANTIOQUIA,GÓMEZ PLATA,6.6778056,-75.219806,15/01/1922,15/12/1955
386,27010680,MACARENA LA HDA ,PM,MET,CON,SUS,ANTIOQUIA,REMEDIOS,7.05,-74.85,15/10/1974,15/03/1978
387,27010770,CHUSCAL EL   ,PM,MET,CON,ACT,ANTIOQUIA,HELICONIA,6.1783333,-75.705083,15/08/1970,
388,27010780,BOQUERON ,PM,MET,CON,SUS,ANTIOQUIA,MEDELLÍN,6.35,-75.683333,15/08/1970,15/11/1990
389,27010790,MESETA LA-SENA ,PM,MET,CON,SUS,ANTIOQUIA,CALDAS,6.0333333,-75.616667,15/08/1970,15/10/1984
390,27010800,MESETA LA SN PEDRO ,PM,MET,CON,ACT,ANTIOQUIA,BELLO,6.3997222,-75.607222,15/08/1970,
391,27010810,STA HELENA ,PM,MET,CON,ACT,ANTIOQUIA,MEDELLÍN,6.1968889,-75.51675,15/08/1970,
392,27010820,CUCHILLA LA ,PM,MET,CON,ACT,ANTIOQUIA,GIRARDOTA,6.3683333,-75.453611,15/08/1970,
393,27010830,SAN ISIDRO ,PM,MET,CON,ACT,ANTIOQUIA,ENTRERRIOS,6.5632222,-75.51575,15/08/1970,
394,27010840,SAN PABLO ,PM,MET,CON,ACT,ANTIOQUIA,SANTA ROSA DE OSOS,6.602,-75.246528,15/10/1970,
395,27010850,AMALFI ,PM,MET,CON,ACT,ANTIOQUIA,AMALFI,6.9055556,-75.077222,15/10/1970,
396,27010860,NORMANDIA HDA ,PM,MET,CON,SUS,ANTIOQUIA,YOLOMBÓ,6.7,-75.116667,15/10/1970,15/04/1981
397,27010870,BELMIRA ,PM,MET,CON,ACT,ANTIOQUIA,BELMIRA,6.6091667,-75.668333,15/11/1970,
398,27010880,MONTAÑITAS ,PM,MET,CON,ACT,ANTIOQUIA,SANTA ROSA DE OSOS,6.7028611,-75.392222,15/10/1970,
399,27010890,CUEVA SANTA ,PM,MET,CON,ACT,ANTIOQUIA,AMALFI,6.959,-75.038361,15/10/1970,
400,27010900,GOMEZ PLATA ,PM,MET,CON,ACT,ANTIOQUIA,GÓMEZ PLATA,6.6778056,-75.219806,15/10/1970,
401,27010960,MONOS HDA ,PM,MET,CON,ACT,ANTIOQUIA,AMALFI,6.8986111,-74.902139,15/03/1978,
402,27011100,BRISAS LAS ,PM,MET,CON,ACT,ANTIOQUIA,SEGOVIA,7.1588056,-74.821833,15/03/1983,
403,27011110,ASTILLEROS ,PM,MET,CON,ACT,ANTIOQUIA,MEDELLÍN,6.2573056,-75.675861,15/10/1990,
404,27011120,IGUANA LA ,PG,MET,CON,ACT,ANTIOQUIA,MEDELLÍN,6.3162778,-75.657528,15/10/1990,
405,27011230,SAN ANTONIO ,PM,MET,CON,ACT,ANTIOQUIA,YOLOMBÓ,6.6208333,-75.151667,15/10/1999,
406,27011270,LAURELES-MEDELLIN    ,PM,MET,CON,ACT,ANTIOQUIA,MEDELLÍN,6.2464167,-75.591056,1/6/2011,
407,27015070,A.OLAYA HERRERA   ,SP,MET,CON,ACT,ANTIOQUIA,MEDELLÍN,6.2206111,-75.588972,15/09/1940,
408,27015090,TULIO OSPINA   ,CO,MET,CON,ACT,ANTIOQUIA,BELLO,6.3196944,-75.55325,15/09/1950,
409,27015110,ARAGON    ,CO,MET,CON,ACT,ANTIOQUIA,SANTA ROSA DE OSOS,6.7810833,-75.560889,15/05/1970,
410,27015120,PIEDRAS BLANCAS ,CO,MET,CON,SUS,ANTIOQUIA,MEDELLÍN,6.3,-75.5,15/12/1970,15/12/1981
411,27015150,PROGRESO EL HDA  ,CO,MET,CON,ACT,ANTIOQUIA,BARBOSA,6.4474722,-75.397167,15/04/1973,
412,27015160,CLARA LA ,AM,MET,CON,SUS,ANTIOQUIA,CALDAS,6.0666667,-75.6,15/03/1975,15/09/1978
413,27015190,GUAYABITO    ,CO,MET,CON,ACT,ANTIOQUIA,SANTO DOMINGO,6.5403889,-75.14675,15/05/1970,
414,27015200,NORMANDIA HDA ,CO,MET,CON,SUS,ANTIOQUIA,YOLOMBÓ,6.7833333,-75.116667,15/04/1981,15/09/1998
415,27015210,VIVERO EL ,CP,MET,CON,SUS,ANTIOQUIA,GUARNE,6.2833333,-75.5,15/07/1982,15/06/1996
416,27015260,SALADA LA   ,AM,MET,CON,ACT,ANTIOQUIA,CALDAS,6.0483611,-75.624667,15/07/1984,
417,27015270,JARDIN BOTANICO  ,CO,MET,CON,SUS,ANTIOQUIA,MEDELLÍN,6.2669167,-75.563167,15/05/2002,18/08/2009
418,27015280,PMO BELMIRA AUTOM  ,CP,MET,AUT,ACT,ANTIOQUIA,BELMIRA,6.6320278,-75.644444,23/11/2004,
419,27015290,PAJARITO AUTOM   ,CP,MET,AUT,SUS,ANTIOQUIA,MEDELLÍN,6.2863333,-75.612792,17/11/2005,6/1/2016
420,27015300,VILLANUEVA VILLAHERMOSA   ,CP,MET,AUT,SUS,ANTIOQUIA,MEDELLÍN,6.2532778,-75.55,8/9/2005,6/1/2016
421,27015310,METROMEDELLIN    ,CP,MET,AUT,ACT,ANTIOQUIA,MEDELLÍN,6.32975,-75.552111,1/7/2005,
422,27015320,ARAGON AUTOM   ,AM,MET,AUT,ACT,ANTIOQUIA,SANTA ROSA DE OSOS,6.534,-75.827,28/08/2004,
423,27015330,OLAYA HERRERA - ,SP,MET,AUT,ACT,ANTIOQUIA,MEDELLÍN,6.2206111,-75.588981,12/5/2014,
424,27015502,SOLMAFORO MEDELLIN,ME,MET,AUS,ACT,ANTIOQUIA,MEDELLÍN,6.2451306,-75.576978,3/12/2015,
425,27017480,BOCAS DE CANA ,LM,HID,CON,SUS,ANTIOQUIA,ANORÍ,7.4,-74.916667,15/10/1974,15/02/1976
426,27020040,ANGOSTURA ,PM,MET,CON,SUS,ANTIOQUIA,ANGOSTURA,6.8830556,-75.332472,15/01/1922,15/12/1958
427,27020160,TENCHE LA RISARALD ,PM,MET,CON,SUS,ANTIOQUIA,ANORÍ,7.35,-75.033333,15/07/1970,15/02/1984
428,27020170,CARMEN EL HDA ,PM,MET,CON,ACT,ANTIOQUIA,ANORÍ,7.1471944,-75.079778,15/10/1970,
429,27020180,ANORI ,PM,MET,CON,SUS,ANTIOQUIA,ANORÍ,7.0719167,-75.150528,15/10/1970,15/08/1988
430,27020190,YARUMAL ,PM,MET,CON,ACT,ANTIOQUIA,YARUMAL,6.9559722,-75.415556,15/10/1970,
431,27020200,CEDENO ,PG,MET,CON,ACT,ANTIOQUIA,YARUMAL,7.0707222,-75.355583,15/11/1970,
432,27020210,ANGOSTURA ,PM,MET,CON,ACT,ANTIOQUIA,ANGOSTURA,6.8830556,-75.332472,15/10/1970,
433,27020220,LLANOS D CUIBA LOS ,PM,MET,CON,ACT,ANTIOQUIA,YARUMAL,6.8136111,-75.483861,15/11/1970,
434,27020260,TESORO EL ,PM,MET,CON,ACT,ANTIOQUIA,VALDIVIA,7.2467778,-75.302194,15/09/1975,
435,27020280,MARGARITAS LAS ,PM,MET,CON,SUS,ANTIOQUIA,TARAZÁ,7.25,-75.266667,15/11/1974,15/07/1983
436,27025010,MONTEFRIO ,CO,MET,CON,SUS,ANTIOQUIA,ANORÍ,6.95,-75.2,15/07/1970,15/05/1973
437,27025020,CHARCON LIBERIA ,CO,MET,CON,SUS,ANTIOQUIA,ANORÍ,7.3833333,-75,15/06/1970,15/10/1985
438,27025030,ANORI    ,CO,MET,CON,ACT,ANTIOQUIA,ANORÍ,7.0719167,-75.150528,15/05/1975,
439,27027060,BRISAS DEL NECHI ,LG,HID,CON,ACT,ANTIOQUIA,YARUMAL,6.9396944,-75.380833,15/12/1974,
440,27027070,TRES Y MEDIO ,LG,HID,CON,SUS,ANTIOQUIA,ANORÍ,7.4,-74.95,15/11/1974,15/01/1990
441,27027080,MEDIA LUNA ,LM,HID,CON,SUS,ANTIOQUIA,CAMPAMENTO,7.2030556,-75.318917,15/11/1974,20/10/2010
442,27027090,PTE ANORI ,LG,HID,CON,SUS,ANTIOQUIA,ANORÍ,7.2019444,-75.315778,15/11/1974,28/08/2014
443,27030030,ZARAGOZA ,PM,MET,CON,SUS,ANTIOQUIA,ZARAGOZA,7.4862222,-74.872389,15/02/1922,15/09/1967
444,27030040,GUAMO EL ,PM,MET,CON,ACT,ANTIOQUIA,NECHÍ,7.9044167,-74.814,15/05/1970,
445,27030050,BAGRE EL ,PM,MET,CON,SUS,ANTIOQUIA,EL BAGRE,7.6166667,-74.8,15/05/1970,15/05/1987
446,27030060,AMACERI ,PM,MET,CON,SUS,ANTIOQUIA,EL BAGRE,7.75,-74.733333,15/05/1970,15/05/1987
447,27030080,CRUZADA LA ,PM,MET,CON,ACT,ANTIOQUIA,REMEDIOS,7.0680556,-74.715056,15/06/1970,
448,27030090,BOSQUE EL ,PM,MET,CON,ACT,ANTIOQUIA,ZARAGOZA,7.3193056,-74.839333,15/06/1970,
449,27030130,LONDRE EL ,PM,MET,CON,SUS,ANTIOQUIA,EL BAGRE,7.4666667,-74.65,15/11/1974,15/05/1987
450,27030140,PALMA DE COCO LA ,PM,MET,CON,ACT,ANTIOQUIA,SEGOVIA,7.2361111,-74.807944,15/10/1974,
451,27030150,ASI ES LA VIDA ,PM,MET,CON,SUS,ANTIOQUIA,EL BAGRE,7.7333333,-74.583333,15/10/1974,15/05/1987
452,27030160,BUENAVISTA ,PM,MET,CON,SUS,ANTIOQUIA,EL BAGRE,7.4333333,-74.666667,15/10/1974,15/05/1987
453,27030190,PATIO BONITO 2 ,PM,MET,CON,SUS,ANTIOQUIA,SEGOVIA,7.2166667,-74.833333,15/10/1974,15/03/1983
454,27030210,ZARAGOZA ,PM,MET,CON,ACT,ANTIOQUIA,ZARAGOZA,7.4862222,-74.872389,15/07/1970,
455,27030220,ORIENTE EL ,PM,MET,CON,SUS,ANTIOQUIA,EL BAGRE,7.5666667,-74.666667,15/11/1974,15/05/1987
456,27030230,MONTEVERDE ,PM,MET,CON,SUS,ANTIOQUIA,SEGOVIA,7.35,-74.65,15/10/1970,15/03/1971
457,27030240,PTE BAGRE ,PG,MET,CON,SUS,ANTIOQUIA,REMEDIOS,7.1166667,-74.6,15/04/1981,15/08/1999
458,27035010,MONTES NEGROS ,CO,MET,CON,SUS,ANTIOQUIA,ZARAGOZA,7.5,-74.716667,15/05/1970,15/11/1973
459,27035020,BOQUETE EL ,CO,MET,CON,SUS,ANTIOQUIA,SEGOVIA,7.1333333,-74.65,15/07/1970,15/04/1974
460,27035030,STA MARGARITA ,CO,MET,CON,SUS,ANTIOQUIA,EL BAGRE,7.7333333,-74.766667,15/05/1970,15/04/1980
461,27037010,LA ESPERANZA NECHI  ,LG,HID,AUT,ACT,ANTIOQUIA,NECHÍ,8.0301111,-74.785556,9/3/1975,
462,27037020,RETIRO EL ,LM,HID,CON,ACT,ANTIOQUIA,ZARAGOZA,7.5615833,-74.805194,15/04/1973,
463,27037030,SAN JUAN NECHI AUTOM ,HA,HMT,AUT,ACT,ANTIOQUIA,ZARAGOZA,7.475,-74.920833,15/05/1976,
464,27040020,ALTO DEL INDIO ,PM,MET,CON,ACT,ANTIOQUIA,ZARAGOZA,7.531,-74.95275,15/05/1970,
465,27040030,ESMERALDA LA ,PM,MET,CON,ACT,ANTIOQUIA,CAUCASIA,7.7511111,-74.853056,15/05/1970,
466,27040040,NECHI ,PM,MET,CON,ACT,ANTIOQUIA,NECHÍ,8.0971667,-74.769444,15/11/2006,
467,27045020,CASERI    ,CO,MET,CON,ACT,ANTIOQUIA,CAUCASIA,7.8117222,-74.935972,15/05/1970,
468,27047010,BAGRE EL ,LM,HID,CON,SUS,ANTIOQUIA,EL BAGRE,7.6166667,-74.8,15/04/1975,15/08/1993
469,29045150,SAIZA AUTOMATICA ,CP,MET,AUT,SUS,CÓRDOBA,TIERRALTA,7.7460278,-76.4325,15/11/2002,10/8/2010
470,56010020,AMARGAL ,PM,MET,CON,SUS,CHOCÓ,NUQUÍ,5.5971806,-77.4967,15/03/1993,15/10/1997
471,56010030,CUPICA ,PM,MET,CON,ACT,CHOCÓ,BAHÍA SOLANO ,6.7065556,-77.490611,15/10/1997,
472,56010040,NUQUI ,PM,MET,CON,ACT,CHOCÓ,NUQUÍ,5.7080556,-77.265833,15/06/2000,
473,56010050,ARUSI    ,PG,MET,CON,ACT,CHOCÓ,NUQUÍ,5.5957778,-77.475611,1/3/2010,
474,56015010,PANAMERICANA ,CO,MET,CON,ACT,CHOCÓ,BAHÍA SOLANO ,6.2233333,-77.404444,15/01/1963,
475,56015030,AMARGAL ,CO,MET,CON,SUS,CHOCÓ,NUQUÍ,5.5708333,-77.502778,15/10/1997,19/04/2010
476,56019010,BAHIA SOLANO AUTOMATICA ,MM,HMT,AUT,SUS,CHOCÓ,BAHÍA SOLANO ,6.2686389,-77.433167,24/11/2005,20/11/2008
477,12030010,SAN JUAN DE URABA ,PM,MET,CON,ACT,ANTIOQUIA,SAN JUAN DE URABÁ,8.7552222,-76.533056,15/04/1972,
478,12030020,CARMELO EL   ,PM,MET,CON,ACT,ANTIOQUIA,ARBOLETES,8.6169444,-76.381389,15/03/1972,
479,12037010,CANDELARIA LA ,LG,HID,CON,ACT,ANTIOQUIA,ARBOLETES,8.6597222,-76.445833,15/06/1977,
480,12037020,LAJA LA HDA ,LM,HID,CON,SUS,ANTIOQUIA,SAN JUAN DE URABÁ,8.7166667,-76.483333,15/05/1977,15/04/1995
481,12037030,CARMELO EL   ,LG,HID,CON,ACT,ANTIOQUIA,ARBOLETES,8.6172222,-76.385278,15/05/1977,
482,12040010,JARAMAGAL    ,PM,MET,CON,ACT,CÓRDOBA,PUERTO ESCONDIDO,8.9008333,-76.220833,15/10/1973,
483,12040020,CANALETE ,PM,MET,CON,ACT,CÓRDOBA,CANALETE,8.7869444,-76.235556,15/01/1959,
484,12045010,ARBOLETES    ,CP,MET,CON,ACT,ANTIOQUIA,ARBOLETES,8.8469444,-76.431944,15/03/1972,
485,12045020,CRISTO REY   ,CO,MET,CON,ACT,CÓRDOBA,PUERTO ESCONDIDO,9.0711111,-76.224444,15/10/1973,
486,12047010,CANALETE ,LM,HID,CON,ACT,CÓRDOBA,CANALETE,8.7869722,-76.236417,15/09/1987,
487,12065501,SOLMAFORO CARTAGENA,ME,MET,AUS,ACT,BOLÍVAR,CARTAGENA DE INDIAS,10.4200278,-75.551139,3/12/2015,
488,12067001,GUAJARO EMBALSE AUT ,HA,HMT,AUT,ACT,ATLÁNTICO,REPELÓN,10.5205556,-75.096278,20/04/2016,
489,13010010,MOLINILLO ,PM,MET,CON,SUS,CÓRDOBA,TIERRALTA,7.6833333,-76.05,15/06/1990,15/03/1999
490,13010020,TUCURA ,PM,MET,CON,SUS,CÓRDOBA,TIERRALTA,7.9333333,-76.266667,15/08/1959,15/09/1973
491,13010040,FLECHA LA ,PM,MET,CON,SUS,CÓRDOBA,TIERRALTA,7.6333333,-75.966667,15/06/1990,15/03/1999
492,13010050,URRA SANDUBO ,PG,MET,AUT,SUS,CÓRDOBA,TIERRALTA,7.7515,-76.227778,25/03/2009,29/09/2010
493,13015020,TUCURA ,CO,MET,CON,SUS,CÓRDOBA,TIERRALTA,7.9666667,-76.25,15/11/1991,15/10/1996
494,13015030,CAMPO BELLO ,CP,MET,CON,SUS,CÓRDOBA,TIERRALTA,7.9833333,-76.233333,15/12/1996,31/03/2008
495,13015040,REPRESA URRA   ,CP,MET,CON,ACT,CÓRDOBA,TIERRALTA,8.0141667,-76.203056,15/11/2004,
496,13017010,DESPENSA LA ,LG,HID,CON,SUS,CÓRDOBA,TIERRALTA,7.8666667,-76.283333,15/10/1965,15/12/1998
497,13017020,LIMON EL ,LG,HID,CON,SUS,CÓRDOBA,TIERRALTA,7.8333333,-76.266667,15/03/1966,15/03/1999
498,13017040,SAN CONALITO ,LM,HID,CON,SUS,CÓRDOBA,TIERRALTA,7.6833333,-76.116667,15/06/1990,15/12/1998
499,13017050,URRA SANDUBO ,LG,HID,AUT,SUS,CÓRDOBA,TIERRALTA,7.7515,-76.227778,25/03/2009,29/09/2010
500,13020010,DESPENSA LA ,PM,MET,CON,SUS,CÓRDOBA,TIERRALTA,7.8833333,-76.3,15/01/1966,15/06/1990
501,13020020,CIELO EL ,PM,MET,CON,SUS,CÓRDOBA,TIERRALTA,7.9166667,-76.416667,15/09/1973,15/02/2002
502,13020040,SAIZA ,PM,MET,CON,SUS,CÓRDOBA,TIERRALTA,7.7,-76.483333,15/06/1990,15/02/2002
503,13025010,SAIZA ,CP,MET,CON,SUS,CÓRDOBA,TIERRALTA,7.7,-76.483333,15/10/1974,15/02/1976
504,13025020,ESMERALDA LA ,CO,MET,CON,SUS,CÓRDOBA,TIERRALTA,7.8333333,-76.25,15/10/1974,15/01/1975
505,13025030,DESPENSA LA ,CO,MET,CON,SUS,CÓRDOBA,TIERRALTA,7.8833333,-76.3,15/06/1990,15/05/1996
506,13027010,ESMERALDA LA ,LM,HID,CON,SUS,CÓRDOBA,TIERRALTA,7.75,-76.25,15/06/1990,15/12/2001
507,13027020,PTO MANGO ,LM,HID,CON,SUS,CÓRDOBA,TIERRALTA,7.6166667,-76.3,15/06/1990,15/05/1994
508,13027030,CANAFINA ,LM,HID,CON,SUS,CÓRDOBA,TIERRALTA,7.85,-76.316667,15/06/1990,15/12/1998
509,13027040,CAÑO BRAVO - AUT ,HA,HMT,AUT,ACT,CÓRDOBA,AYAPEL,8.2358472,-74.960439,2/1/2017,
510,13030010,TIERRALTA    ,PM,MET,CON,ACT,CÓRDOBA,TIERRALTA,8.1866667,-76.053056,15/02/1959,
511,13030030,URRA 1 ,PG,MET,CON,SUS,CÓRDOBA,TIERRALTA,7.9833333,-76.233333,15/05/1983,15/05/1996
512,13035010,PTO NUEVO ,CP,MET,CON,SUS,CÓRDOBA,TIERRALTA,7.95,-76.283333,15/09/1965,15/12/1991
513,13035501,APTO LOS GARZONES ,SP,MET,AUT,ACT,CÓRDOBA,MONTERÍA,8.8258333,-75.825139,6/2/2015,
514,13037010,ANGOSTURA DE URRA ,LG,HID,CON,SUS,CÓRDOBA,TIERRALTA,8,-76.25,15/08/1959,15/12/1998
515,13037020,PALOMAS LAS ,LM,HID,CON,SUS,CÓRDOBA,MONTERÍA,8.45,-76.016667,15/08/1964,15/01/1991
516,13037030,PTO SALGAR AUTOMATICA,LM,HID,AUT,SUS,CÓRDOBA,TIERRALTA,8.1,-76.1,15/04/1966,15/05/1978
517,13037040,CARRIZOLA AUTOM   ,LM,HID,CON,ACT,CÓRDOBA,TIERRALTA,8.1608333,-76.095556,15/06/1990,
518,13040010,QUIMARI ,PM,MET,CON,SUS,CÓRDOBA,TIERRALTA,8.0666667,-76.333333,15/09/1973,15/02/2002
519,13040030,PEZVAL    ,PM,MET,CON,ACT,CÓRDOBA,VALENCIA,8.2622222,-76.169167,15/09/1990,
520,13045010,JARAGUAY ,CO,MET,CON,SUS,CÓRDOBA,VALENCIA,8.3,-76.083333,15/02/1966,15/02/1988
521,13047010,RUSIA ,LM,HID,CON,SUS,CÓRDOBA,VALENCIA,8.2833333,-76.266667,15/11/1989,15/01/1991
522,13047020,NUBES LAS ,LM,HID,CON,SUS,CÓRDOBA,VALENCIA,8.3166667,-76.1,15/11/1989,15/01/1991
523,13047030,TIERRALTA ,LG,HID,CON,SUS,CÓRDOBA,TIERRALTA,8.1870556,-76.064611,15/06/1990,18/09/2011
524,13047040,TORO EL ,LM,HID,CON,SUS,CÓRDOBA,TIERRALTA,8.1134833,-76.127936,15/06/1990,18/06/2014
525,13047050,PASACABALLOS ,LG,HID,CON,SUS,CÓRDOBA,TIERRALTA,8.05,-76.2,15/06/1990,15/09/2005
526,13050010,STA LUCIA   ,PM,MET,CON,ACT,CÓRDOBA,MONTERÍA,8.8486111,-76.045278,15/08/1965,
527,13050020,STA CRUZ HDA ,PM,MET,CON,ACT,CÓRDOBA,MONTERÍA,8.6675,-76.123889,15/10/1973,
528,13050030,LOMA VERDE ,PM,MET,CON,ACT,CÓRDOBA,MONTERÍA,8.5019444,-76.175278,15/12/1965,
529,13050040,TRES PIEDRAS ,PM,MET,CON,SUS,CÓRDOBA,MONTERÍA,8.45,-75.966667,15/01/1959,15/10/1973
530,13055010,VORAGINE LA ,CO,MET,CON,SUS,CÓRDOBA,MONTERÍA,8.6,-76.033333,15/09/1965,15/06/1979
531,13055020,TENERIFE ,CO,MET,CON,SUS,CÓRDOBA,MONTERÍA,8.6833333,-76.116667,15/01/1966,15/12/1967
532,13055030,GALAN ,CO,MET,CON,SUS,CÓRDOBA,MONTERÍA,8.6591667,-75.9725,15/06/1979,28/08/2014
533,13055040,INCODER AUTOM   ,AM,MET,CON,ACT,CÓRDOBA,MONTERÍA,8.7469444,-75.913889,17/11/2004,
534,13057010,NUEVA COLOMBIA   ,LG,HID,CON,ACT,CÓRDOBA,MONTERÍA,8.4994444,-75.978611,15/06/1990,
535,13060010,SAN ANTERITO   ,PM,MET,CON,ACT,CÓRDOBA,MONTERÍA,8.5577778,-75.861111,15/09/1973,
536,13060020,BUENOS AIRES   ,PM,MET,CON,ACT,CÓRDOBA,MONTERÍA,8.4758333,-75.765278,15/08/1965,
537,13060030,CARAMELO ,PM,MET,CON,ACT,CÓRDOBA,TIERRALTA,8.2661111,-75.903889,15/12/1965,
538,13065010,TORPEZA LA ,CO,MET,CON,SUS,CÓRDOBA,MONTERÍA,8.4333333,-75.966667,15/01/1965,15/05/1979
539,13065020,MARACAYO    ,CO,MET,CON,ACT,CÓRDOBA,MONTERÍA,8.4105556,-75.884444,15/05/1979,
540,13067010,TRES PIEDRAS ,LM,HID,CON,SUS,CÓRDOBA,MONTERÍA,8.4895,-75.953167,15/05/1979,21/09/2011
541,13067020,MONTERIA  AUTOMATICA ,HA,HMT,AUT,ACT,CÓRDOBA,MONTERÍA,8.7516111,-75.892417,15/02/1963,
542,13067030,STA HELENA ,LM,HID,CON,SUS,CÓRDOBA,MONTERÍA,8.5654,-75.965908,15/03/1963,28/08/2014
543,13067040,MARACAYO    ,LM,HID,CON,ACT,CÓRDOBA,MONTERÍA,8.4102778,-75.895,15/08/1964,
544,13067050,TRES PALMAS ,LM,HID,CON,SUS,CÓRDOBA,MONTERÍA,8.5055556,-75.952222,15/09/1979,18/06/2014
545,13067060,JUNQUILLO ,LM,HID,CON,SUS,CÓRDOBA,MONTERÍA,8.4079722,-75.912083,15/05/1979,18/06/2014
546,13067070,PTE EL ,LM,HID,CON,SUS,CÓRDOBA,MONTERÍA,8.4333333,-75.95,15/05/1979,15/05/1985
547,13067080,BETANCI ,LM,HID,CON,ACT,CÓRDOBA,MONTERÍA,8.5040278,-75.963694,15/11/1990,
548,13070010,LIMON EL   ,PM,MET,CON,ACT,CÓRDOBA,SAN BERNARDO ,9.3361111,-75.9375,15/10/1964,
549,13070020,MOMIL    ,LM,HID,CON,ACT,CÓRDOBA,MOMIL,9.2344444,-75.688056,15/10/1973,
550,13070030,SABANA NUEVA ,PM,MET,CON,SUS,CÓRDOBA,SAN PELAYO,9.0333333,-75.833333,15/10/1973,15/06/2002
551,13070040,RABOLARGO ,PM,MET,CON,ACT,CÓRDOBA,CERETÉ,8.9506111,-75.742472,15/01/1963,
552,13070050,CERETE ,PM,MET,CON,ACT,CÓRDOBA,CERETÉ,8.8903333,-75.78625,15/01/1963,
553,13070060,CGA DE ORO,PM,MET,CON,ACT,CÓRDOBA,CIÉNAGA DE ORO,8.8725,-75.625833,15/09/1958,
554,13070070,BOCA DE LA CEIBA ,PM,MET,CON,ACT,CÓRDOBA,MONTERÍA,8.8299167,-75.856111,15/01/1970,
555,13070080,SIGLO EL ,PG,MET,CON,SUS,CÓRDOBA,CIÉNAGA DE ORO,8.95,-75.566667,15/05/1986,15/02/2002
556,13070090,SAN CARLOS   ,PM,MET,CON,ACT,CÓRDOBA,SAN CARLOS,8.7905556,-75.701389,15/01/1964,
557,13070100,STA ROSA ,PM,MET,CON,ACT,CÓRDOBA,SAN CARLOS,8.7411111,-75.601417,15/01/1963,
558,13070110,CARRIZAL ,PM,MET,CON,ACT,CÓRDOBA,SAN CARLOS,8.6819444,-75.753528,15/08/1965,
559,13070120,CALLEMAR    ,PM,MET,CON,ACT,CÓRDOBA,SAN CARLOS,8.6975,-75.677778,15/06/1963,
560,13070130,CALIFORNIA ,PG,MET,CON,SUS,CÓRDOBA,MONTERÍA,8.7833333,-75.833333,15/08/1974,15/02/2002
561,13070140,COROZA 1 ,PG,MET,CON,SUS,CÓRDOBA,CERETÉ,8.8333333,-75.75,15/08/1974,15/02/2002
562,13070150,MOCARI ,PG,MET,CON,SUS,CÓRDOBA,MONTERÍA,8.8,-75.866667,15/08/1974,15/05/2002
563,13070160,BERASTEGUI ,PM,MET,CON,SUS,CÓRDOBA,CIÉNAGA DE ORO,8.8833333,-75.7,15/08/1978,15/02/2002
564,13070170,BUENOS AIRES 1  ,PM,MET,CON,ACT,CÓRDOBA,SAN CARLOS,8.7727778,-75.749722,15/08/1978,
565,13070180,CARRILLO ,PM,MET,CON,ACT,CÓRDOBA,SAN PELAYO,8.9844444,-75.831778,15/03/1979,
566,13070190,COROZA 2   ,PM,MET,CON,ACT,CÓRDOBA,SAN CARLOS,8.8047222,-75.765,15/08/1974,
567,13070200,COROCITO ,PM,MET,CON,SUS,CÓRDOBA,SAN PELAYO,8.95,-75.8,15/03/1979,15/02/2002
568,13070210,COTORRA ,PM,MET,CON,SUS,CÓRDOBA,COTORRA,9.0333333,-75.783333,15/03/1979,15/02/2002
569,13070220,FLOR DEL SINU ,PM,MET,CON,SUS,CÓRDOBA,MONTERÍA,8.8166667,-75.85,15/08/1974,15/02/2002
570,13070230,HORIZONTE ,PM,MET,CON,SUS,CÓRDOBA,MONTERÍA,8.7666667,-75.866667,15/08/1974,15/02/2002
571,13070240,CERRO BAHIA ,PM,MET,CON,SUS,CÓRDOBA,LORICA,9.3,-75.85,15/11/1974,15/06/2002
572,13070250,TRAPICHE EL ,PM,MET,CON,SUS,CÓRDOBA,LORICA,9.3166667,-75.883333,15/05/1979,15/06/2002
573,13070260,LAMAS 3 ,PM,MET,CON,SUS,CÓRDOBA,MONTERÍA,8.7333333,-75.85,15/08/1978,15/05/2002
574,13070270,MONTERIA ,PM,MET,CON,SUS,CÓRDOBA,MONTERÍA,8.8265278,-75.841833,15/08/1974,18/08/2010
575,13070280,SABANAL    ,PM,MET,CON,ACT,CÓRDOBA,MONTERÍA,8.7886111,-75.751389,15/06/1978,
576,13070290,TAMPA    ,PM,MET,CON,ACT,CÓRDOBA,MONTERÍA,8.6247222,-75.767222,15/05/1978,
577,13070300,CHIMA ,PM,MET,CON,SUS,CÓRDOBA,CHIMA,9.15,-75.616667,15/09/1958,15/10/1973
578,13070310,CHIMA ,PG,MET,CON,SUS,CÓRDOBA,CHIMA,9.15,-75.616667,15/11/1965,15/05/1971
579,13070320,CHIMA ,PM,MET,CON,SUS,CÓRDOBA,CHIMA,9.15075,-75.622083,15/06/1965,15/11/1969
580,13070330,ICOTEAS LAS ,PG,MET,CON,SUS,CÓRDOBA,COTORRA,9.05,-75.766667,15/11/1974,15/02/1977
581,13070340,PALMA DE VINO ,PM,MET,CON,SUS,CÓRDOBA,MONTERÍA,8.7333333,-75.8,15/08/1978,15/05/2002
582,13070380,CERETE ,PM,MET,CON,SUS,CÓRDOBA,CERETÉ,8.8850833,-75.797417,15/04/1954,15/12/1960
583,13070420,CNO EL MUERTO ,PM,MET,CON,SUS,CÓRDOBA,LORICA,9.3,-75.85,15/10/1964,15/10/1973
584,13070430,VENECIA ,PM,MET,CON,ACT,CÓRDOBA,SAN ANDRÉS DE ,9.1952778,-75.541111,15/08/1987,
585,13070440,VILLA MARCELA ,PM,MET,CON,ACT,CÓRDOBA,SAN ANTERO,9.3522222,-75.718889,15/07/1988,
586,13070450,AGUAS MOHOSAS   ,PM,MET,CON,ACT,CÓRDOBA,SAN ANDRÉS DE ,9.2511111,-75.491667,15/08/1986,
587,13070520,MOMIL ,PM,MET,CON,ACT,CÓRDOBA,MOMIL,9.2388889,-75.676389,15/02/1963,
588,13075010,CHIMA ,CO,MET,CON,ACT,CÓRDOBA,CHIMA,9.15075,-75.622083,15/10/1973,
589,13075020,SALADO EL ,CO,MET,CON,ACT,CÓRDOBA,CIÉNAGA DE ORO,8.9138889,-75.582222,15/10/1964,
590,13075030,TURIPANA ,AM,MET,CON,ACT,CÓRDOBA,CERETÉ,8.8395278,-75.801889,15/05/1960,
591,13075040,APTO BERASTEGUI ,SS,MET,CON,SUS,CÓRDOBA,CIÉNAGA DE ORO,8.8833333,-75.666667,15/01/1944,15/10/1977
592,13075050,UNIV DE CORDOBA ,AM,MET,CON,ACT,CÓRDOBA,MONTERÍA,8.7938889,-75.861528,15/06/1979,
593,13075060,MONTERIA ,CO,MET,CON,SUS,CÓRDOBA,MONTERÍA,8.75,-75.883333,15/01/1956,15/10/1971
594,13077010,SABANA NUEVA   ,LM,HID,CON,ACT,CÓRDOBA,SAN PELAYO,9.0322222,-75.845833,15/02/1963,
595,13077030,PALMA CENTRAL ,LM,HID,CON,SUS,CÓRDOBA,LORICA,9.1956111,-75.818194,15/06/1953,9/9/2011
596,13077040,LA DOCTRINA,LM,HID,CON,ACT,CÓRDOBA,LORICA,9.2972222,-75.892778,15/06/1963,
597,13077050,EL BONGO ,LM,HID,CON,SUS,CÓRDOBA,SAN PELAYO,8.9375833,-75.856417,15/09/1963,11/9/2011
598,13077060,COTOCA ABAJO   ,LG,HID,CON,ACT,CÓRDOBA,LORICA,9.2244444,-75.834444,15/02/1970,
599,13077070,CIENAGA DE ORO ,LM,HID,CON,ACT,CÓRDOBA,CIÉNAGA DE ORO,8.8725,-75.625833,15/11/1973,
600,13077080,HIGAL EL ,LM,HID,CON,SUS,CÓRDOBA,CIÉNAGA DE ORO,8.9441389,-75.602861,15/11/1973,28/08/2014
601,13077090,BERASTEGUI ,LM,HID,CON,SUS,CÓRDOBA,CIÉNAGA DE ORO,8.9333333,-75.716667,15/09/1985,15/01/1991
602,13077100,MOCARI ,LG,HID,CON,SUS,CÓRDOBA,MONTERÍA,8.8,-75.85,15/09/1975,15/09/2005
603,13077110,CASA BOMBAS ,LM,HID,CON,SUS,CÓRDOBA,LORICA,9.3,-75.9,15/07/1982,15/09/2005
604,13077120,SAN CARLOS ,LM,HID,CON,SUS,CÓRDOBA,SAN CARLOS,8.8,-75.7,15/09/1985,15/10/1991
605,13077130,POLITO EL ,LM,HID,CON,SUS,CÓRDOBA,CIÉNAGA DE ORO,8.9666667,-75.716667,15/09/1985,15/01/1991
606,13077140,PTE SAN CARLOS ,LM,HID,CON,SUS,CÓRDOBA,CIÉNAGA DE ORO,8.9,-75.733333,15/09/1985,15/01/1991
607,13077150,CERETE ,LM,HID,CON,ACT,CÓRDOBA,CERETÉ,8.8850833,-75.797417,15/12/1987,
608,13077160,VENECIA ,LM,HID,CON,SUS,CÓRDOBA,SAN ANDRÉS DE ,9.1833333,-75.516667,15/12/1987,15/01/1991
609,13077170,LORICA ,LM,HID,CON,ACT,CÓRDOBA,LORICA,9.2266722,-75.815008,15/12/1987,
610,13077180,SICARA ,LM,HID,CON,SUS,CÓRDOBA,SAN BERNARDO ,9.35,-75.95,15/12/1987,15/01/1991
611,13077190,SOLEDAD ,LM,HID,CON,SUS,CÓRDOBA,SAN ANTERO,9.35,-75.866667,15/12/1987,15/09/2005
612,13077200,TREMENTINO ,LM,HID,CON,SUS,CÓRDOBA,MONTERÍA,8.7166667,-75.766667,15/01/1987,15/01/1991
613,13077210,ESMERALDA LA ,LM,HID,CON,SUS,CÓRDOBA,SAN ANDRÉS DE ,9.2,-75.566667,15/06/1988,15/01/1991
614,13077220,BAJO GRANDE ,LM,HID,CON,SUS,CÓRDOBA,SAN ANDRÉS DE ,9.15,-75.516667,15/06/1988,15/01/1991
615,13077230,AGUAS MOHOSAS ,LM,HID,CON,SUS,CÓRDOBA,SAN ANDRÉS DE ,9.2511111,-75.491667,15/08/1986,15/01/1991
616,13077240,COCORILLA ,LM,HID,CON,SUS,CÓRDOBA,SAN ANTERO,9.3,-75.783333,15/12/1989,15/01/1991
617,13077250,MARIA LA ,LM,HID,CON,SUS,SUCRE,SINCELEJO,9.2,-75.45,15/12/1989,15/01/1991
618,13077260,CUESTA ABAJO ,LM,HID,CON,SUS,CÓRDOBA,SAN ANDRÉS DE ,9.15,-75.516667,15/12/1989,15/01/1991
619,13077270,CRUZ CHIQUITA ,LM,HID,CON,SUS,CÓRDOBA,SAN ANDRÉS DE ,9.2166667,-75.5,15/12/1989,15/01/1991
620,13077280,GARZONES LOS ,LM,HID,CON,SUS,CÓRDOBA,MONTERÍA,8.8266389,-75.841972,15/11/1990,18/06/2014
621,13077300,EL MONTON   ,LM,HID,CON,ACT,CÓRDOBA,MONTERÍA,8.8683333,-75.835556,15/06/1990,
622,13080010,SAN ANTONIO ,PM,MET,CON,ACT,CÓRDOBA,SAN PELAYO,8.9358611,-75.953333,15/09/1965,
623,13080020,LORICA ,PM,MET,CON,SUS,CÓRDOBA,LORICA,9.25,-75.833333,15/01/1958,15/10/1972
624,13080030,SAN ANTONIO ,PG,MET,CON,SUS,CÓRDOBA,SAN PELAYO,8.9333333,-75.983333,15/09/1965,15/03/1971
625,13080040,LORICA ,PM,MET,CON,SUS,CÓRDOBA,LORICA,9.25,-75.833333,15/01/1934,15/12/1958
626,13080060,DOCTRINA LA ,PM,MET,CON,SUS,CÓRDOBA,LORICA,9.3,-75.883333,15/09/1964,15/03/1970
627,13085010,DOCTRINA LA   ,CP,MET,CON,ACT,CÓRDOBA,LORICA,9.2972222,-75.892778,15/01/1968,
628,13085020,LORICA ,CO,MET,CON,SUS,CÓRDOBA,LORICA,9.2527222,-75.844417,15/06/1964,2/10/2010
629,13085030,SAN BERNARDO ,CO,MET,CON,ACT,CÓRDOBA,SAN BERNARDO ,9.3707778,-75.949306,15/11/1964,
630,13085040,APTO LOS GARZONES ,SS,MET,CON,ACT,CÓRDOBA,MONTERÍA,8.8258333,-75.825139,15/06/1974,
631,13085050,LORICA  ITA AUTOMATICA ,CP,MET,AUT,SUS,CÓRDOBA,LORICA,9.2527222,-75.844417,13/05/2005,2/10/2010
632,13087010,JUNIN ,LM,HID,CON,SUS,CÓRDOBA,SAN BERNARDO ,9.2333333,-76.033333,15/12/1987,15/09/1990
633,13090010,SABANETICA ,PM,MET,CON,ACT,SUCRE,SAN ONOFRE,9.8288889,-75.432778,15/04/1974,
634,13090020,SAN ONOFRE   ,PM,MET,CON,ACT,SUCRE,SAN ONOFRE,9.7541667,-75.538056,15/05/1959,
635,13090030,BERRUGAS ,PM,MET,CON,ACT,SUCRE,SAN ONOFRE,9.9102778,-75.600556,15/04/1974,
636,13090040,CHALAN ,PM,MET,CON,ACT,SUCRE,CHALÁN,9.5386111,-75.3225,15/08/1974,
637,13090050,TOLUVIEJO    ,PM,MET,CON,ACT,SUCRE,TOLUVIEJO,9.4383889,-75.440278,15/04/1974,
638,13090060,PARAISO EL   ,PM,MET,CON,ACT,SUCRE,COLOSÓ,9.4738889,-75.370833,15/05/1986,
639,13090070,TOLU    ,PM,MET,CON,ACT,SUCRE,TOLÚ,9.5191667,-75.591111,15/09/1958,
640,13090080,BELEN HDA ,PM,MET,CON,ACT,SUCRE,SAN ONOFRE,9.8194444,-75.410278,15/12/1978,
641,13090090,STA ANGELA HDA ,PM,MET,CON,ACT,SUCRE,TOLÚ,9.4852778,-75.5125,15/02/1978,
642,13090100,ARGENTINA LA HDA ,PM,MET,CON,ACT,SUCRE,TOLUVIEJO,9.4858333,-75.468611,15/02/1978,
643,13090110,PALO ALTO ,PM,MET,CON,ACT,SUCRE,SAN ONOFRE,9.8175,-75.418333,15/02/1978,
644,13090230,PASTORA LA   ,PM,MET,CON,ACT,SUCRE,SINCELEJO,9.2933333,-75.491944,15/11/1990,
645,13095010,COVEÑAS AUTOMATICA,ME,MET,AUT,SUS,SUCRE,TOLÚ,9.3833333,-75.666667,15/02/1980,15/04/1992
646,13095020,PRIMATES ,CP,MET,CON,ACT,SUCRE,COLOSÓ,9.5301389,-75.351361,15/12/1984,
647,13097010,TOLUVIEJO    ,LM,HID,CON,ACT,SUCRE,TOLUVIEJO,9.4383889,-75.440278,15/08/1969,
648,13097020,PARAISO EL ,LM,HID,CON,SUS,SUCRE,COLOSÓ,9.5,-75.4,15/07/1986,15/01/1991
649,13097030,CARACOL ,LM,HID,CON,SUS,SUCRE,TOLUVIEJO,9.4,-75.4,15/12/1989,15/01/1991
650,13097040,CERRO BOMBA ,LM,HID,CON,SUS,CÓRDOBA,SAN ANDRÉS DE ,9.2666667,-75.5,15/12/1989,15/01/1991
651,13097050,PASTORA LA ,LM,HID,CON,SUS,SUCRE,SINCELEJO,9.2666667,-75.483333,15/12/1989,15/04/1991
652,13097060,NUMEROS LOS ,LM,HID,CON,SUS,SUCRE,OVEJAS,9.6333333,-75.216667,15/03/1990,15/01/1991
653,13097070,PELONA LA ,LM,HID,CON,SUS,SUCRE,SAN ONOFRE,9.75,-75.583333,15/03/1990,15/01/1991
654,14010010,PIOJO ,PG,MET,CON,ACT,ATLÁNTICO,PIOJÓ,10.7461111,-75.107972,15/04/1962,
655,14010020,HIBACHARO ,PM,MET,CON,ACT,ATLÁNTICO,PIOJÓ,10.7218889,-75.140111,15/01/1963,
656,14010030,BAYUNCA ,PM,MET,CON,ACT,BOLÍVAR,CARTAGENA DE INDIAS,10.5241667,-75.401389,15/05/1974,
657,14010040,BUENAVISTA ,PG,MET,CON,SUS,ATLÁNTICO,PIOJÓ,10.75,-75.083333,15/11/1963,15/07/1971
658,14010050,CANAVERAL ,PM,MET,CON,ACT,BOLÍVAR,TURBACO,10.405,-75.3375,15/05/1974,
659,14010090,PORVENIR EL ,PM,MET,CON,ACT,ATLÁNTICO,PIOJÓ,10.7102222,-75.162278,15/07/1988,
660,14010100,PINTADA LA ,PM,MET,CON,ACT,ATLÁNTICO,TUBARÁ,10.9551111,-74.995,15/12/1992,
661,14015010,GALERAZAMBA    ,CP,MET,CON,ACT,BOLÍVAR,SANTA CATALINA,10.7941667,-75.260556,15/12/1945,
662,14015020,APTO RAFAEL NUNEZ ,SP,MET,CON,ACT,BOLÍVAR,CARTAGENA DE INDIAS,10.44725,-75.516028,15/03/1941,
663,14015030,ESC NAVAL CIOH  ,CP,MET,CON,ACT,BOLÍVAR,CARTAGENA DE INDIAS,10.4472222,-75.516111,15/03/1947,
664,14015060,ISLAS DEL ROSARIO ,CP,MET,CON,SUS,BOLÍVAR,CARTAGENA DE INDIAS,10.1833333,-75.75,15/12/1983,15/08/1996
665,14015070,ISLA DEL TESORO ,ME,MET,CON,SUS,BOLÍVAR,CARTAGENA DE INDIAS,10.2333333,-75.75,15/03/1985,15/10/1990
666,14015080,A. RAFAEL NUÑEZ ,SP,MET,AUT,ACT,BOLÍVAR,CARTAGENA DE INDIAS,10.44725,-75.516028,6/5/2005,
667,14017701,MAHATES AUTOM ,LG,HID,AUT,ACT,BOLÍVAR,MAHATES,10.2397861,-75.203808,1/4/2014,
668,14017702,BARRANCAVIEJA AUTOM ,LG,HID,AUT,ACT,BOLÍVAR,CALAMAR,10.1645278,-74.940667,1/4/2014,
669,14019010,CARTAGENA ,MM,HID,CON,SUS,BOLÍVAR,CARTAGENA DE INDIAS,10.3872083,-75.529897,15/09/1948,15/06/1993
670,14019020,ISLA DEL ROSARIO  ,MM,HID,CON,SUS,BOLÍVAR,CARTAGENA DE INDIAS,10.1954167,-75.747306,15/07/1989,22/07/2009
671,14019030,ESC NAVAL CIOH AUTOM ,LG,HID,AUT,ACT,BOLÍVAR,CARTAGENA DE INDIAS,10.3905639,-75.533831,15/07/1991,
672,14019040,TAJAMAR OCCIDENTAL ,MM,HID,AUT,SUS,ATLÁNTICO,BARRANQUILLA,11.1063056,-74.854722,19/10/2006,29/09/2010
673,25010010,PTO LIBERTADOR   ,PM,MET,CON,ACT,CÓRDOBA,PUERTO LIBERTADOR,7.8902778,-75.68,15/05/1989,
674,25010060,URE ,PM,MET,CON,ACT,CÓRDOBA,SAN JOSE DE URE,7.7880556,-75.538333,15/11/1973,
675,25010080,PICA PICA   ,PM,MET,CON,ACT,CÓRDOBA,MONTELÍBANO,8.0311111,-75.683056,15/11/1973,
676,25010090,MONTELIBANO ,PM,MET,CON,SUS,CÓRDOBA,MONTELÍBANO,8.0333333,-75.483333,15/04/1963,15/10/1973
677,25010100,SAN FRANCISCO   ,PM,MET,CON,ACT,CÓRDOBA,MONTELÍBANO,8.1291667,-75.76,15/12/1973,
678,25010110,ACACIAS LAS HDA ,PM,MET,CON,ACT,CÓRDOBA,PUERTO LIBERTADOR,8.0061111,-75.647222,15/02/1980,
679,25015010,CENTRO ALEGRE ,CO,MET,CON,ACT,CÓRDOBA,PLANETA RICA,8.1807778,-75.632278,15/12/1973,
680,25017010,MONTELIBANO AUTOMATICA ,HA,HMT,AUT,ACT,CÓRDOBA,MONTELÍBANO,7.9879722,-75.417333,15/04/1973,
681,25017020,SAN PEDRO AUTOM  ,LG,HID,AUT,ACT,CÓRDOBA,PUERTO LIBERTADOR,7.8538889,-75.709722,15/05/1989,
682,25017030,PICA PICA   ,LM,HID,CON,ACT,CÓRDOBA,MONTELÍBANO,8.0302778,-75.680278,15/08/1995,
683,25020060,SAN MARCOS ,PM,MET,CON,SUS,SUCRE,SAN MARCOS,8.6333333,-75.133333,15/10/1931,15/01/1945
684,25020130,SINCELEJO ,PM,MET,CON,SUS,SUCRE,SINCELEJO,9.3081667,-75.406833,15/09/1958,18/08/2010
685,25020140,SAHAGUN    ,PM,MET,CON,ACT,CÓRDOBA,SAHAGÚN,8.9508333,-75.451944,15/09/1958,
686,25020150,MAGANGUE ,PM,MET,CON,SUS,BOLÍVAR,MAGANGUÉ,9.2333333,-74.766667,15/05/1968,15/12/1969
687,25020160,SAN MARCOS ,PM,MET,CON,SUS,SUCRE,SAN MARCOS,8.6333333,-75.133333,15/05/1959,15/10/1973
688,25020170,VERACRUZ HDA ,PM,MET,CON,SUS,CÓRDOBA,PLANETA RICA,8.4166667,-75.566667,15/05/1959,15/11/1973
689,25020190,PTO ASIS ,PM,MET,CON,ACT,SUCRE,LOS PALMITOS,9.4319444,-75.129167,15/03/1984,
690,25020320,CALLAO ,PM,MET,CON,SUS,BOLÍVAR,ZAMBRANO,9.6833333,-74.9,15/03/1987,15/04/1987
691,25020340,MAJAGUAL ,PM,MET,CON,SUS,SUCRE,MAJAGUAL,8.5333333,-74.65,15/01/1959,15/12/1969
692,25020360,SUCRE ,PM,MET,CON,SUS,SUCRE,SUCRE,8.8097222,-74.722222,15/07/1966,15/12/1969
693,25020380,PINILLOS ,PM,MET,CON,SUS,BOLÍVAR,PINILLOS,8.9113889,-74.457778,15/07/1966,15/05/1974
694,25020390,CHARCON ,PM,MET,CON,ACT,SUCRE,LOS PALMITOS,9.3972222,-75.155806,15/05/1986,
695,25020400,LIBRA ARRIBA   ,PM,MET,CON,ACT,SUCRE,SAN JUAN DE BETULIA ,9.3205556,-75.303611,15/06/1987,
696,25020480,PAJAROS  LOS ,PG,MET,CON,ACT,CÓRDOBA,AYAPEL,8.3405556,-74.867778,15/10/1968,
697,25020490,SAN BENITO A VILLA ,PM,MET,CON,SUS,SUCRE,SAN BENITO ABAD,8.9333333,-75.033333,15/11/1966,15/10/1973
698,25020500,VILLA CECILIA HDA ,PM,MET,CON,ACT,SUCRE,SUCRE,8.8161111,-74.729444,15/05/1968,
699,25020501,CHINU AUTOM ,PM,MET,AUT,ACT,CÓRDOBA,CHINÚ,9.1177778,-75.393333,11/12/2014,
700,25020504,SAN PEDRO AUTOM ,PM,MET,AUT,ACT,SUCRE,SAN PEDRO,9.4016389,-75.016389,10/3/2014,
701,25020506,SAJONIA HDA AUTOM ,PM,MET,AUT,ACT,CÓRDOBA,PUEBLO NUEVO,8.4897222,-75.601389,10/3/2014,
702,25020507,TREMENTINO AUTOM ,PM,MET,AUT,ACT,CÓRDOBA,MONTERÍA,8.7166667,-75.766667,10/3/2014,
703,25020570,PALITO ,PM,MET,CON,SUS,SUCRE,SAN BENITO ABAD,8.95,-75.033333,15/09/1971,15/02/2002
704,25020640,MAJAGUAL FLORI HDA ,PM,MET,CON,SUS,SUCRE,MAJAGUAL,8.5333333,-74.616667,15/01/1969,15/02/1974
705,25020700,APARTADA LA   ,PM,MET,CON,ACT,CÓRDOBA,LA APARTADA,8.0530556,-75.338611,15/11/1973,
706,25020710,CINTURA    ,PM,MET,AUT,ACT,CÓRDOBA,PUEBLO NUEVO,8.42,-75.273889,15/11/1973,
707,25020720,JOBO EL TABLON ,PM,MET,CON,ACT,CÓRDOBA,SAHAGÚN,8.6372222,-75.383611,15/11/1973,
708,25020730,CHINU    ,PM,MET,CON,ACT,CÓRDOBA,CHINÚ,9.1177778,-75.393333,15/11/1973,
709,25020740,EUREKA HDA   ,PM,MET,CON,ACT,SUCRE,SAN MARCOS,8.6291667,-75.014722,15/11/1973,
710,25020750,TABLITAS LAS ,PM,MET,CON,ACT,SUCRE,SAN BENITO ABAD,9.0113889,-75.168889,15/11/1973,
711,25020760,SANTIAGO APOSTOL   ,PM,MET,CON,ACT,SUCRE,SAN BENITO ABAD,9.0047222,-74.940556,15/11/1973,
712,25020770,SAN PEDRO ,PM,MET,CON,ACT,SUCRE,SAN PEDRO,9.4030556,-75.052778,15/11/1973,
713,25020780,CECILIA ,PM,MET,CON,ACT,CÓRDOBA,AYAPEL,8.4613889,-75.034167,15/12/1973,
714,25020790,PALMARITO ,PM,MET,CON,ACT,SUCRE,MAJAGUAL,8.7188889,-74.717778,15/03/1974,
715,25020820,ZAPATA ,PM,MET,CON,ACT,SUCRE,MAJAGUAL,8.6027778,-74.699722,15/04/1974,
716,25020860,FRONTERA LA HDA ,PM,MET,CON,ACT,SUCRE,BUENAVISTA,9.3594444,-74.940833,15/05/1974,
717,25020870,PLAYITAS ,PM,MET,CON,ACT,BOLÍVAR,SAN MARTIN DE LOBA,8.8227778,-73.965833,15/09/1974,
718,25020880,BARRANCO DE LOBA ,PM,MET,CON,ACT,BOLÍVAR,BARRANCO DE LOBA,8.9466667,-74.110556,15/09/1974,
719,25020890,CHILLOA ,PM,MET,CON,ACT,BOLÍVAR,MARGARITA,9.1193889,-74.221944,15/09/1974,
720,25020900,SAN SEBASTIAN ,PM,MET,CON,ACT,MAGDALENA,SAN SEBASTIÁN DE ,9.2338889,-74.355833,15/01/1974,
721,25020910,RIONUEVO    ,PM,MET,CON,ACT,BOLÍVAR,BARRANCO DE LOBA,8.8097222,-74.254444,15/10/1974,
722,25020950,SAN ANTONIO ALERTA ,PM,MET,CON,ACT,BOLÍVAR,MAGANGUÉ,9.0419444,-74.771111,15/04/1974,
723,25020960,CORDOBA ,PM,MET,CON,ACT,BOLÍVAR,CÓRDOBA,9.5880556,-74.825278,15/04/1974,
724,25020980,CAIMITO ,PM,MET,CON,ACT,SUCRE,CAIMITO,8.7908333,-75.124444,15/11/1973,
725,25020990,HATO NUEVO ,PM,MET,CON,ACT,SUCRE,COROZAL,9.1783333,-75.190278,15/11/1973,
726,25021000,GALERAS ,PM,MET,CON,ACT,SUCRE,GALERAS,9.165,-75.050833,15/11/1973,
727,25021010,BUENAVISTA    ,PM,MET,CON,ACT,CÓRDOBA,BUENAVISTA,8.2222222,-75.4675,15/11/1973,
728,25021020,TIERRA GRATA   ,PM,MET,CON,ACT,MAGDALENA,SANTA BÁRBARA DE ,9.4366667,-74.739167,15/05/1974,
729,25021030,SAN ZENON ,PM,MET,CON,ACT,MAGDALENA,SAN ZENÓN,9.2475,-74.501944,15/05/1974,
730,25021090,STA ROSA ,PM,MET,CON,ACT,BOLÍVAR,SAN FERNANDO,9.0933333,-74.313889,15/10/1974,
731,25021180,STA CRUZ   ,PM,MET,CON,ACT,BOLÍVAR,MOMPÓS,9.0783333,-74.688889,15/03/1974,
732,25021200,NEGRITOS LOS ,PM,MET,CON,ACT,MAGDALENA,EL BANCO,9.0266667,-74.079444,15/07/1976,
733,25021210,TREMENTINO ,PM,MET,CON,ACT,CÓRDOBA,SAHAGÚN,8.8179444,-75.474194,15/11/1973,
734,25021260,BARRANCO DE YUCA ,PM,MET,CON,ACT,BOLÍVAR,MAGANGUÉ,9.1738889,-74.850833,15/10/1976,
735,25021270,CANDELARIA    ,PM,MET,CON,ACT,BOLÍVAR,MOMPÓS,9.0730556,-74.525556,15/10/1976,
736,25021280,COYONGAL ALERTAS   ,PM,MET,CON,ACT,BOLÍVAR,MAGANGUÉ,8.9683333,-74.511944,15/03/1979,
737,25021290,JOLON EL   ,PM,MET,CON,ACT,BOLÍVAR,SAN FERNANDO,9.1013889,-74.408889,15/10/1976,
738,25021300,LIMON EL ,PM,MET,CON,ACT,BOLÍVAR,CICUCO,9.2738889,-74.646389,15/10/1976,
739,25021310,POZON EL ,PM,MET,CON,ACT,BOLÍVAR,HATILLO DE LOBA,9.0041667,-74.405833,15/10/1976,
740,25021320,SUDAN EL   ,PM,MET,CON,ACT,BOLÍVAR,TIQUISIO (Puerto Rico),8.6433333,-74.212222,15/10/1976,
741,25021330,GUAYMARAL ,PM,MET,CON,ACT,BOLÍVAR,MOMPÓS,9.1154444,-74.613472,15/10/1976,
742,25021340,ESPERANZA LA ,PM,MET,CON,ACT,BOLÍVAR,CICUCO,9.2491667,-74.736111,15/09/1958,
743,25021350,MOMPOS ,PM,MET,CON,ACT,BOLÍVAR,MOMPÓS,9.2627778,-74.435556,15/10/1976,
744,25021360,CAMPO ALEGRE ,PM,MET,CON,ACT,SUCRE,SUCRE,8.9247222,-74.711944,15/04/1974,
745,25021370,SAN LUIS ,PM,MET,CON,ACT,SUCRE,SUCRE,8.8816667,-74.708056,15/07/1976,
746,25021380,SAN ROQUE ALERTAS  ,PM,MET,CON,ACT,MAGDALENA,EL BANCO,9.0716667,-74.153333,15/05/1980,
747,25021450,SAJONIA HDA   ,PM,MET,CON,ACT,CÓRDOBA,PUEBLO NUEVO,8.4897222,-75.601389,15/01/1980,
748,25021470,TORNO EL HDA ,PM,MET,CON,ACT,SUCRE,SAN MARCOS,8.5763889,-75.089722,15/03/1980,
749,25021510,BARBOSA    ,PM,MET,CON,ACT,BOLÍVAR,MAGANGUÉ,9.0225,-74.636667,15/10/1976,
750,25021540,AGUADAS LAS ALERTA ,PM,MET,CON,ACT,BOLÍVAR,HATILLO DE LOBA,8.9541667,-74.055,15/11/1978,
751,25021550,PLANETA RICA ,PM,MET,CON,SUS,CÓRDOBA,PLANETA RICA,8.4166667,-75.566667,15/05/1959,15/11/1973
752,25021560,ISLA DEL COCO ,PM,MET,CON,ACT,SUCRE,SUCRE,8.9027778,-74.798611,15/04/1974,
753,25021570,FLORIDA LA ,PM,MET,CON,SUS,SUCRE,MAJAGUAL,8.65,-75.166667,15/07/1966,15/02/1974
754,25021660,MIRASOL ,PM,MET,CON,ACT,SUCRE,SAN MARCOS,8.6008333,-75.257222,15/02/1990,
755,25025001,APTO LAS FLORES ,CP,MET,AUT,ACT,MAGDALENA,EL BANCO,9.0463333,-73.970833,5/5/2013,
756,25025020,MONTERREY FORESTAL   ,CP,MET,CON,ACT,BOLÍVAR,ZAMBRANO,9.7316667,-74.838056,15/01/1987,
757,25025040,APTO LA FLORIDA ,CP,MET,CON,SUS,SUCRE,SAN MARCOS,8.7,-75.183333,15/01/1932,15/04/1992
758,25025060,MAJAGUAL ,CO,MET,CON,SUS,SUCRE,MAJAGUAL,8.5333333,-74.65,15/01/1932,15/12/1937
759,25025080,APTO RAFAEL BARVO ,SS,MET,CON,ACT,SUCRE,COROZAL,9.3338889,-75.283056,15/06/1940,
760,25025100,APTO BARACOA ,CP,MET,CON,ACT,BOLÍVAR,MAGANGUÉ,9.2819444,-74.845278,15/01/1954,
761,25025110,MAGANGUE ,CO,MET,CON,SUS,BOLÍVAR,MAGANGUÉ,9.2333333,-74.75,15/01/1971,15/09/1977
762,25025150,AYAPEL ,CO,MET,CON,ACT,CÓRDOBA,AYAPEL,8.2950639,-75.164556,15/08/1967,
763,25025160,CUBA HDA   ,CO,MET,CON,ACT,CÓRDOBA,MONTELÍBANO,8.0038889,-75.402778,15/04/1973,
764,25025170,COLOMBOY ,CO,MET,CON,ACT,CÓRDOBA,SAHAGÚN,8.7408611,-75.498833,15/10/1973,
765,25025180,SAN BENITO ABAD  ,CO,MET,AUT,ACT,SUCRE,SAN BENITO ABAD,9.1638889,-75.044722,15/11/1973,
766,25025190,PLANETA RICA ,CO,MET,CON,ACT,CÓRDOBA,PLANETA RICA,8.3993333,-75.583722,15/11/1973,
767,25025210,PINILLOS    ,CO,MET,CON,ACT,BOLÍVAR,PINILLOS,8.9113889,-74.457778,15/05/1974,
768,25025240,MAJAGUAL    ,CP,MET,CON,ACT,SUCRE,MAJAGUAL,8.5426944,-74.627333,15/11/1974,
769,25025270,UNISUCRE ,AM,MET,CON,ACT,SUCRE,SAMPUÉS,9.3163889,-75.3875,15/09/1983,
770,25025280,EL TESORO IDEAM ,AM,MET,AUT,ACT,SUCRE,MORROA,9.3570833,-75.28925,2/12/2004,
771,25025310,PUERTA ROJA ,ME,MET,CON,ACT,SUCRE,SINCELEJO,9.3163889,-75.3875,15/12/1984,
772,25025340,SAN MARCOS AUTOMATICA ,CP,MET,AUT,ACT,SUCRE,SAN MARCOS,8.5968333,-75.142694,7/10/2005,
773,25025350,PUERTA ROJA AUTOMATICA ,CP,MET,AUT,ACT,SUCRE,SINCELEJO,9.3163889,-75.3875,23/08/2004,
774,25025502,SAN BENITO AUTOM ,ME,MET,AUT,ACT,SUCRE,SAN BENITO ABAD,9.1638889,-75.044722,14/11/2014,
775,25025503,BUENAVISTA AUTOM ,ME,MET,AUT,ACT,CÓRDOBA,BUENAVISTA,8.2222222,-75.4675,10/3/2014,
776,25025505,AYAPEL AUTOM ,ME,MET,AUT,ACT,CÓRDOBA,AYAPEL,8.2950639,-75.164556,11/12/2014,
777,25027001,SAN MARCOS AUTOM ,HA,HMT,AUT,ACT,SUCRE,SAN MARCOS,8.6547222,-75.131389,29/10/2013,
778,25027002,BEIRUT AUTOM ,HA,HMT,AUT,ACT,CÓRDOBA,AYAPEL,8.3022222,-75.133889,13/11/2014,
779,25027020,EL BANCO AUTOMATICA,HA,HMT,AUT,ACT,MAGDALENA,EL BANCO,8.9925278,-73.969444,15/01/1934,
780,25027040,CHARCON ,LM,HID,CON,SUS,SUCRE,LOS PALMITOS,9.3972222,-75.155806,15/04/1983,15/01/1991
781,25027070,PTO CORDOBA   ,LM,HID,CON,ACT,CÓRDOBA,BUENAVISTA,8.0680556,-75.361389,15/04/1968,
782,25027090,LIBRA ARRIBA ,LM,HID,CON,SUS,SUCRE,SAN JUAN DE BETULIA ,9.3333333,-75.183333,15/04/1983,15/01/1991
783,25027110,SUCRE    ,LM,HID,CON,ACT,SUCRE,SUCRE,8.8097222,-74.722222,15/10/1966,
784,25027120,MARRALU    ,LM,HID,CON,ACT,CÓRDOBA,AYAPEL,8.3163889,-75.242778,15/01/1977,
785,25027170,MANTEQUEIRA ,LM,HID,CON,SUS,BOLÍVAR,PINILLOS,8.8833333,-74.466667,15/04/1967,15/08/1970
786,25027180,SAN ANTONIO ,LG,HID,CON,ACT,BOLÍVAR,MAGANGUÉ,9.0391667,-74.767528,15/04/1967,
787,25027220,SAN MARCOS   ,LM,HID,CON,ACT,SUCRE,SAN MARCOS,8.6547222,-75.131389,15/03/1968,
788,25027230,AYAPEL BEIRUT ,LM,HID,CON,SUS,CÓRDOBA,AYAPEL,8.3,-75.116667,15/03/1968,15/05/1972
789,25027240,JEGUA ,LG,HID,CON,ACT,SUCRE,SAN BENITO ABAD,8.9063056,-74.965944,15/03/1968,
790,25027250,RETIRO EL ,LM,HID,CON,SUS,BOLÍVAR,MAGANGUÉ,9.1666667,-74.716667,15/04/1968,15/03/1978
791,25027290,SITIO NUEVO ,LM,HID,CON,SUS,BOLÍVAR,MAGANGUÉ,9.0163889,-74.605639,15/04/1968,28/08/2014
792,25027300,PTO ASIS ,LM,HID,CON,SUS,SUCRE,LOS PALMITOS,9.4333333,-75.133333,15/03/1984,15/01/1991
793,25027310,REPRESA EL CALLAO ,LM,HID,CON,SUS,BOLÍVAR,ZAMBRANO,9.6833333,-74.9,15/03/1987,15/10/1996
794,25027320,SAN ROQUE ,LM,HID,CON,ACT,MAGDALENA,EL BANCO,9.0718889,-74.157444,15/09/1972,
795,25027330,PENONCITO    ,LM,HID,CON,ACT,BOLÍVAR,EL PEÑÓN,8.9897222,-73.947222,15/09/1972,
796,25027340,BEIRUT    ,LM,HID,CON,ACT,CÓRDOBA,AYAPEL,8.3022222,-75.133889,15/05/1972,
797,25027350,MULAS ,LM,HID,CON,SUS,SUCRE,OVEJAS,9.4666667,-75.15,15/12/1987,15/01/1991
798,25027360,ARMENIA    ,LM,HID,CON,ACT,BOLÍVAR,PINILLOS,8.8983333,-74.39,15/03/1973,
799,25027370,STA ANA ,LG,HID,CON,ACT,MAGDALENA,SANTA ANA,9.3202528,-74.574558,15/06/1973,
800,25027380,SUDAN EL   ,LM,HID,CON,ACT,BOLÍVAR,TIQUISIO (Puerto Rico),8.6438889,-74.215556,15/07/1973,
801,25027390,PALOMAS LAS   ,LM,HID,CON,ACT,BOLÍVAR,ALTOS DEL ROSARIO,8.8305556,-74.170556,15/07/1973,
802,25027400,ALTO DEL ROSARIO ,LM,HID,CON,ACT,BOLÍVAR,ALTOS DEL ROSARIO,8.7944444,-74.160278,15/07/1973,
803,25027420,VICTORIA LA   ,LM,HID,CON,ACT,BOLÍVAR,MARGARITA,8.965,-74.220833,15/07/1973,
804,25027450,PLATO MAGDALENA   ,LM,HID,CON,ACT,MAGDALENA,PLATO,9.7877778,-74.805833,15/08/1964,
805,25027490,LAS AGUADAS   ,LM,HID,CON,ACT,BOLÍVAR,HATILLO DE LOBA,8.9538889,-74.054167,15/03/1973,
806,25027500,MAJAGUAL    ,LM,HID,CON,ACT,SUCRE,MAJAGUAL,8.5426944,-74.627333,15/11/1989,
807,25027510,CERRITOS LOS ,LM,HID,CON,SUS,BOLÍVAR,BARRANCO DE LOBA,8.8519167,-74.268778,15/09/1973,28/08/2014
808,25027520,OREJERO    ,LM,HID,CON,ACT,SUCRE,SUCRE,8.9822222,-74.713889,15/11/1989,
809,25027530,BARBOSA    ,LM,HID,CON,ACT,BOLÍVAR,MAGANGUÉ,9.0225,-74.636667,15/09/1973,
810,25027540,MORENEROS BOCA ,LG,HID,CON,SUS,BOLÍVAR,PINILLOS,9.0166667,-74.466667,15/10/1973,15/12/1984
811,25027550,ALGARROBAL ,LM,HID,CON,ACT,MAGDALENA,EL BANCO,9.1315278,-74.044278,15/09/1973,
812,25027560,CICUCO ,LG,HID,CON,SUS,BOLÍVAR,TALAIGUA NUEVO,9.3833333,-74.7,15/06/1976,15/09/1984
813,25027570,PALENQUITO ,LM,HID,CON,ACT,BOLÍVAR,PINILLOS,8.9985,-74.461694,15/03/1974,
814,25027580,GUAYMARAL ,LM,HID,CON,SUS,BOLÍVAR,MOMPÓS,9.1151389,-74.595167,15/03/1974,26/03/2012
815,25027600,MAJATA ,LG,HID,CON,SUS,BOLÍVAR,MAGANGUÉ,9.0333333,-74.65,15/07/1976,15/02/1985
816,25027610,GIRASOL HDA ,LM,HID,CON,SUS,BOLÍVAR,BARRANCO DE LOBA,8.9166667,-74.133333,15/09/1974,15/07/1981
817,25027620,CHAPETONA LA   ,LM,HID,CON,ACT,BOLÍVAR,EL PEÑÓN,8.8875,-73.969167,15/09/1974,
818,25027630,RIO NUEVO   ,LM,HID,CON,ACT,BOLÍVAR,BARRANCO DE LOBA,8.8097222,-74.254444,15/08/1971,
819,25027650,NUEVE LOS ,LM,HID,CON,SUS,SUCRE,SINCELEJO,9.3166667,-75.383333,15/12/1989,15/01/1991
820,25027660,DIVISA LA ,LM,HID,CON,SUS,SUCRE,OVEJAS,9.6,-75.2,15/03/1990,15/01/1991
821,25027680,MAGANGUE    ,LM,HID,CON,ACT,BOLÍVAR,MAGANGUÉ,9.24,-74.741667,15/09/1967,
822,25027690,PTE PEATONAL ,LM,HID,CON,ACT,SUCRE,SINCÉ,9.1771389,-75.022417,15/11/1973,
823,25027700,CHIQUICERA LA   ,LM,HID,CON,ACT,CÓRDOBA,PLANETA RICA,8.2877778,-75.51,15/11/1973,
824,25027710,CULEBRERA LA ,LM,HID,CON,SUS,SUCRE,GALERAS,9.1805278,-74.914583,15/12/1973,28/08/2014
825,25027720,BARRANCONES ,LG,HID,CON,ACT,CESAR,CHIMICHAGUA,9.1339167,-73.772806,15/01/1974,
826,25027730,TIERRAGRATA ,LM,HID,CON,SUS,MAGDALENA,SANTA BÁRBARA DE ,9.435,-74.735417,15/02/1974,15/10/1976
827,25027740,PINILLOS ,LM,HID,CON,SUS,BOLÍVAR,PINILLOS,8.9113889,-74.457778,15/03/1974,15/07/1981
828,25027750,MARRALU - AUT ,HA,HMT,AUT,ACT,CÓRDOBA,AYAPEL,8.3059167,-75.23925,1/1/2017,
829,25027840,MAGANGUE ,LM,HID,CON,SUS,BOLÍVAR,MAGANGUÉ,9.25,-74.766667,15/02/1977,15/07/1981
830,25027850,BELEN    ,LM,HID,CON,ACT,MAGDALENA,EL BANCO,9.0691667,-73.903056,15/09/1973,
831,25027860,VILLA TERESA ,LM,HID,CON,ACT,SUCRE,SAN BENITO ABAD,9.0239722,-74.976667,15/11/1973,31/05/2014
832,25027920,MAGANGUE ,LM,HID,CON,SUS,BOLÍVAR,MAGANGUÉ,9.2333333,-74.766667,15/02/1977,15/07/1981
833,25027930,COYONGAL    ,LM,HID,CON,ACT,BOLÍVAR,MAGANGUÉ,8.9480556,-74.485833,15/11/1976,
834,25027940,TACAMOCHO ,LM,HID,CON,SUS,BOLÍVAR,CÓRDOBA,9.4935833,-74.815389,15/10/1976,24/03/2011
835,25027980,UNION LA ,LG,HID,CON,SUS,BOLÍVAR,PINILLOS,8.7,-74.316667,15/10/1976,15/11/1976
836,25027990,CONTENTO EL ,LM,HID,CON,SUS,BOLÍVAR,PINILLOS,8.8833333,-74.45,15/09/1974,15/07/1981
837,25028000,TACALOA ,LM,HID,CON,SUS,BOLÍVAR,MAGANGUÉ,9.4166667,-74.75,15/09/1974,15/07/1981
838,25028010,PINTO ,LM,HID,CON,SUS,MAGDALENA,SANTA BÁRBARA DE ,9.4166667,-74.716667,15/06/1978,15/07/1981
839,25028020,PTO KENNEDY ,LM,HID,CON,SUS,BOLÍVAR,MAGANGUÉ,9.35,-74.716667,15/06/1978,15/07/1981
840,25028030,AMPARO EL ,LM,HID,CON,SUS,BOLÍVAR,CICUCO,9.3,-74.683333,15/06/1978,15/07/1981
841,25028050,SAN FRANCISCO ,LM,HID,CON,SUS,BOLÍVAR,MOMPÓS,9.1833333,-74.716667,15/09/1979,15/07/1981
842,25028060,SAN JAVIER ,LM,HID,CON,SUS,BOLÍVAR,MOMPÓS,9.1666667,-74.666667,15/07/1976,15/07/1981
843,25028070,DOÑA ANA ,LM,HID,CON,SUS,BOLÍVAR,MAGANGUÉ,9.05,-74.8,15/09/1974,15/07/1981
844,25028080,CARMEN EL ,LM,HID,CON,SUS,BOLÍVAR,MAGANGUÉ,9.0166667,-74.766667,15/06/1976,15/07/1981
845,25028090,STA CRUZ ,LM,HID,CON,SUS,BOLÍVAR,MOMPÓS,9.0833333,-74.716667,15/05/1974,15/07/1981
846,25028100,ZORRO EL ,LM,HID,CON,SUS,BOLÍVAR,MOMPÓS,9.0333333,-74.616667,15/06/1978,15/07/1981
847,25028110,CANDELARIA ,LM,HID,CON,SUS,BOLÍVAR,MOMPÓS,9.0666667,-74.533333,15/09/1979,15/07/1981
848,25028130,FLORIDA LA ,LM,HID,CON,SUS,BOLÍVAR,PINILLOS,8.9166667,-74.433333,15/09/1974,15/07/1981
849,25028140,SAGOC ,LM,HID,CON,SUS,BOLÍVAR,PINILLOS,8.9333333,-74.45,15/06/1976,15/07/1981
850,25028150,ILUSION LA ,LM,HID,CON,SUS,BOLÍVAR,PINILLOS,9.0166667,-74.433333,15/05/1974,15/07/1981
851,25028160,LIMONES LOS ,LM,HID,CON,SUS,BOLÍVAR,PINILLOS,9.0333333,-74.466667,15/09/1974,15/07/1981
852,25028170,PTA CARTAGENA ,LM,HID,CON,SUS,BOLÍVAR,MAGANGUÉ,8.8833333,-74.483333,15/06/1978,15/07/1981
853,25028180,PANELAS LAS ,LM,HID,CON,SUS,BOLÍVAR,PINILLOS,8.8833333,-74.466667,15/07/1976,15/07/1981
854,25028200,PTO LOPEZ ,LM,HID,CON,SUS,BOLÍVAR,PINILLOS,8.9833333,-74.383333,15/06/1976,15/07/1981
855,25028210,CNO VIDE ,LM,HID,CON,SUS,BOLÍVAR,PINILLOS,8.7833333,-74.333333,15/09/1974,15/07/1981
856,25028220,NO TE PASES HDA ,LM,HID,CON,SUS,BOLÍVAR,PINILLOS,8.8,-74.333333,15/06/1978,15/07/1981
857,25028230,PTO CARMEN ,LM,HID,CON,SUS,BOLÍVAR,PINILLOS,8.8166667,-74.316667,15/06/1976,15/07/1981
858,25028240,NUEVO HORIZONTE ,LM,HID,CON,SUS,BOLÍVAR,PINILLOS,8.8666667,-74.35,15/09/1979,15/07/1981
859,25028250,CAMPO ALEGRE ,LM,HID,CON,SUS,BOLÍVAR,BARRANCO DE LOBA,8.8833333,-74.35,15/07/1976,15/07/1981
860,25028280,PLATANERA LA ,LM,HID,CON,SUS,BOLÍVAR,MARGARITA,8.95,-74.25,15/07/1976,15/07/1981
861,25028290,NUEVO PORVENIR ,LM,HID,CON,SUS,BOLÍVAR,MARGARITA,8.9666667,-74.233333,15/09/1979,15/07/1981
862,25028300,MARIAS LAS ,LM,HID,CON,SUS,BOLÍVAR,BARRANCO DE LOBA,8.9333333,-74.166667,15/06/1976,15/07/1981
863,25028310,SAN MIGUEL ,LM,HID,CON,SUS,MAGDALENA,EL BANCO,9,-73.983333,15/06/1978,15/07/1981
864,25028320,SALTO EL ,LM,HID,CON,SUS,MAGDALENA,EL BANCO,9.0166667,-74,15/07/1976,15/07/1981
865,25028330,LADRILLERAS ,LM,HID,CON,SUS,MAGDALENA,EL BANCO,9,-73.966667,15/09/1979,15/07/1981
866,25028340,JAGUA    ,LG,HID,CON,ACT,BOLÍVAR,MOMPÓS,9.0966667,-74.658333,15/07/1976,
867,25028370,GUAYABAL ,LM,HID,CON,SUS,BOLÍVAR,BARRANCO DE LOBA,8.95,-74.166667,15/09/1974,15/07/1981
868,25028380,ZORRO 1 ,LM,HID,CON,SUS,BOLÍVAR,MOMPÓS,9.0333333,-74.65,15/07/1976,15/07/1981
869,25028390,ZORRO 2 ,LM,HID,CON,SUS,BOLÍVAR,MOMPÓS,9.0333333,-74.65,15/09/1974,15/07/1981
870,25028400,ZORRO 3 ,LM,HID,CON,SUS,BOLÍVAR,MOMPÓS,9.0333333,-74.65,15/09/1974,15/07/1981
871,25028410,MANTEQUERA ,LM,HID,CON,SUS,BOLÍVAR,PINILLOS,8.8833333,-74.45,15/09/1974,15/07/1981
872,25028420,VICTORIA 2 LA ,LM,HID,CON,SUS,BOLÍVAR,PINILLOS,8.95,-74.233333,15/09/1974,15/07/1981
873,25028430,COROZAL ,LM,HID,CON,SUS,SUCRE,COROZAL,9.3,-75.283333,15/09/1984,15/08/2003
874,25028440,BOMBA SUR ,LM,HID,CON,SUS,BOLÍVAR,MAGANGUÉ,9.2333333,-74.733333,15/04/1987,15/07/1987
875,25028450,TACAMOCHO I   ,LM,HID,CON,ACT,BOLÍVAR,CÓRDOBA,9.4338889,-74.735556,24/03/2011,
876,29010050,ZAMBRANO    ,PM,MET,CON,ACT,BOLÍVAR,ZAMBRANO,9.6994444,-74.815556,15/11/1958,
877,29010120,CANONEGRO HDA ,PM,MET,CON,ACT,BOLÍVAR,ZAMBRANO,9.7411111,-74.952222,15/04/1974,
878,29010130,INDUGAN HDA ,PM,MET,CON,ACT,BOLÍVAR,ZAMBRANO,9.8144444,-74.852222,15/04/1974,
879,29010140,VITOLA HDA ,PM,MET,CON,SUS,BOLÍVAR,SAN JUAN NEPOMUCENO,9.9166667,-74.883333,15/08/1978,15/03/1979
880,29015000,EL GUAMO AUTOM  ,CO,MET,AUT,ACT,BOLÍVAR,EL GUAMO,10.0644444,-74.852222,23/03/2004,
881,29015020,CARMEN DE BOLIVAR ,AM,MET,CON,ACT,BOLÍVAR,EL CARMEN DE BOLÍVAR,9.71575,-75.106417,15/01/1931,
882,29015030,GUAMO EL   ,CO,MET,CON,ACT,BOLÍVAR,EL GUAMO,10.0644444,-74.852222,15/05/1974,
883,29015040,CARMEN DE BOLIVAR ,CP,MET,AUT,ACT,BOLÍVAR,EL CARMEN DE BOLÍVAR,9.71575,-75.106417,1/3/2004,
884,29017010,TENERIFE ,LM,HID,CON,ACT,MAGDALENA,TENERIFE,9.9034722,-74.864083,15/03/1973,
885,29027020,PTO BELLO ,LM,HID,CON,SUS,MAGDALENA,PLATO,9.8166667,-74.833333,15/08/1972,15/03/1973
886,29030010,REPELON - IFA ,PM,MET,CON,SUS,ATLÁNTICO,REPELÓN,10.49,-75.126944,15/06/1954,15/11/1961
887,29030020,MANATI ,PM,MET,CON,SUS,ATLÁNTICO,MANATÍ,10.45,-74.966667,15/08/1958,15/10/1971
888,29030030,CALAMAR ,PM,MET,CON,SUS,BOLÍVAR,CALAMAR,10.2333333,-74.916667,15/08/1958,15/10/1971
889,29030040,ARJONA ,PG,MET,CON,ACT,BOLÍVAR,ARJONA,10.2502778,-75.354444,15/09/1958,
890,29030050,SAN ESTANISLAO ,PM,MET,CON,ACT,BOLÍVAR,SAN ESTANISLAO,10.4041111,-75.161833,15/08/1958,
891,29030060,MARIA LA BAJA ,PM,MET,CON,SUS,BOLÍVAR,MARÍA LA BAJA,9.9833333,-75.3,15/05/1959,15/10/1971
892,29030070,COLU ,PM,MET,CON,SUS,BOLÍVAR,MARÍA LA BAJA,9.9166667,-75.35,15/01/1965,15/12/1979
893,29030080,PTO SANTANDER ,PM,MET,CON,ACT,BOLÍVAR,MARÍA LA BAJA,10.0044722,-75.319167,15/01/1964,
894,29030090,MALAGANA ,PM,MET,CON,SUS,BOLÍVAR,MAHATES,10.15,-75.216667,15/10/1963,15/09/1971
895,29030110,RANCHO CHICO ,PM,MET,CON,SUS,BOLÍVAR,MARÍA LA BAJA,9.9666667,-75.3,15/07/1965,15/11/1978
896,29030120,HAYA LA ,PG,MET,CON,SUS,BOLÍVAR,SAN JUAN NEPOMUCENO,9.9666667,-75.183333,15/11/1963,15/12/1970
897,29030130,FLAMENCO ,PG,MET,CON,SUS,BOLÍVAR,MARÍA LA BAJA,9.9691667,-75.400278,15/12/1963,15/12/1965
898,29030140,SAN JOSE   ,PM,MET,CON,ACT,ATLÁNTICO,LURUACO,10.4394444,-75.108333,15/10/1987,
899,29030150,SAN CRISTOBAL ,PG,MET,CON,ACT,BOLÍVAR,SAN JACINTO,9.8680556,-75.250278,15/11/1963,
900,29030160,FLAMENCO ,PM,MET,CON,ACT,BOLÍVAR,MARÍA LA BAJA,9.9691667,-75.400278,15/11/1963,
901,29030170,GAMERO ,PM,MET,CON,ACT,BOLÍVAR,MAHATES,10.2002778,-75.201944,15/02/1964,
902,29030200,SAN CAYETANO ,PM,MET,CON,ACT,BOLÍVAR,SAN JUAN NEPOMUCENO,10.0997222,-75.135278,15/12/1963,
903,29030210,STA RITA ,PM,MET,CON,SUS,BOLÍVAR,SAN JUAN NEPOMUCENO,10.1,-75.166667,15/12/1963,15/10/1978
904,29030220,FLECHA LA HDA ,PM,MET,CON,SUS,BOLÍVAR,MAHATES,10.15,-75.216667,15/09/1965,15/01/1978
905,29030270,LOMA GRANDE ,PM,MET,CON,ACT,ATLÁNTICO,REPELÓN,10.4338333,-75.131583,15/09/1968,
906,29030280,SAN BASILIO ,PM,MET,CON,ACT,BOLÍVAR,MAHATES,10.0858333,-75.200278,15/03/1969,
907,29030300,REBOSADERO ,PM,MET,CON,SUS,BOLÍVAR,SAN JACINTO,9.8833333,-75.25,15/08/1969,15/04/2000
908,29030310,NISPERO EL ,PM,MET,CON,ACT,BOLÍVAR,MARÍA LA BAJA,9.9338889,-75.4175,15/08/1969,
909,29030320,ROCHA ,PM,MET,CON,ACT,BOLÍVAR,ARJONA,10.1008333,-75.4025,15/04/1974,
910,29030330,SAN BARRETO ,PM,MET,CON,SUS,ATLÁNTICO,SANTA LUCÍA,10.3166667,-74.966667,15/08/1974,15/12/1976
911,29030350,SILVANO EL ,PM,MET,CON,SUS,ATLÁNTICO,MANATÍ,10.45,-74.966667,15/08/1969,15/09/1977
912,29030360,BANCO EL ,PM,MET,CON,SUS,ATLÁNTICO,REPELÓN,10.4833333,-75.166667,15/10/1972,15/06/1986
913,29030370,STA ANA ,PM,MET,CON,ACT,BOLÍVAR,CARTAGENA DE INDIAS,10.2341667,-75.551111,15/04/1974,
914,29030390,CABECERA BARTOLO ,PM,MET,CON,SUS,ATLÁNTICO,REPELÓN,10.4833333,-75.15,15/08/1978,15/05/2002
915,29030400,BELLAVISTA ,PM,MET,CON,SUS,ATLÁNTICO,REPELÓN,10.45,-75.116667,15/08/1972,15/06/1976
916,29030410,CASA DE BOMBAS  ,PM,MET,CON,ACT,ATLÁNTICO,REPELÓN,10.4083333,-75.127222,15/05/1978,
917,29030420,CATIVA ,PG,MET,CON,SUS,BOLÍVAR,MAHATES,10.05,-75.216667,15/09/1979,15/02/2002
918,29030430,VISO EL ,PM,MET,CON,ACT,BOLÍVAR,MAHATES,10.1508333,-75.235278,15/09/1973,
919,29030440,HONDURAS ,PM,MET,CON,SUS,BOLÍVAR,MARÍA LA BAJA,9.95,-75.366667,15/08/1979,15/11/1982
920,29030450,CALMA LA ,PM,MET,CON,ACT,BOLÍVAR,MARÍA LA BAJA,9.9329722,-75.262389,15/04/1975,
921,29030460,MARIA LA BAJA ,PM,MET,CON,SUS,BOLÍVAR,MARÍA LA BAJA,9.9833333,-75.3,15/08/1979,15/04/1989
922,29030470,MESA ,PM,MET,CON,SUS,BOLÍVAR,EL CARMEN DE BOLÍVAR,9.8,-75.316667,15/09/1979,15/02/2002
923,29030480,CAMARON ,PM,MET,CON,ACT,BOLÍVAR,EL CARMEN DE BOLÍVAR,9.8552778,-75.310556,15/09/1979,
924,29030490,MIRANDA ,PM,MET,CON,SUS,BOLÍVAR,EL CARMEN DE BOLÍVAR,9.8166667,-75.316667,15/04/1975,15/02/2002
925,29030500,CASA DE PIEDRA ,PM,MET,CON,ACT,BOLÍVAR,SAN JACINTO,9.8738889,-75.215833,15/04/1975,
926,29030510,ESPERANZA FCA LA ,PG,MET,CON,ACT,BOLÍVAR,EL CARMEN DE BOLÍVAR,9.8708333,-75.285556,15/01/1978,
927,29030520,MONTECRISTO ,PM,MET,CON,ACT,BOLÍVAR,SAN JUAN NEPOMUCENO,9.9493056,-75.217194,15/04/1975,
928,29030530,PLATANO    ,PM,MET,CON,ACT,BOLÍVAR,MARÍA LA BAJA,9.9191667,-75.235833,15/04/1975,
929,29030570,HAYA LA ,PG,MET,CON,ACT,BOLÍVAR,SAN JUAN NEPOMUCENO,9.9583333,-75.186111,15/01/1964,
930,29030600,GAMBOTE ,PG,MET,CON,SUS,BOLÍVAR,ARJONA,10.1622222,-75.298611,15/03/1964,15/07/1971
931,29030610,AY MATUYA ,PM,MET,CON,SUS,BOLÍVAR,MARÍA LA BAJA,9.9,-75.283333,15/03/1973,15/10/1977
932,29030640,CABECERA HENEQUEN ,PM,MET,CON,SUS,ATLÁNTICO,REPELÓN,10.5166667,-75.116667,15/10/1978,15/05/2002
933,29030650,CABECERA EL POLVAR ,PM,MET,CON,SUS,ATLÁNTICO,REPELÓN,10.5,-75.15,15/10/1978,15/05/2002
934,29030680,GAMERO ,PM,MET,CON,SUS,BOLÍVAR,MAHATES,10.2002778,-75.201944,15/07/1966,15/06/1968
935,29030710,COLU NUEVO ,PM,MET,CON,SUS,BOLÍVAR,MARÍA LA BAJA,9.9333333,-75.35,15/09/1979,15/02/2002
936,29030730,SINCERIN ,PM,MET,CON,SUS,BOLÍVAR,ARJONA,10.1425833,-75.278278,15/10/1940,15/03/1946
937,29030780,MAMPUJAN    ,PM,MET,CON,ACT,BOLÍVAR,MARÍA LA BAJA,9.9836111,-75.2275,15/07/1983,
938,29035000,SINCERIN ,CP,MET,AUT,ACT,BOLÍVAR,ARJONA,10.1425833,-75.278278,5/5/2013,
939,29035010,SINCERIN ,CO,MET,CON,SUS,BOLÍVAR,ARJONA,10.1425833,-75.278278,15/10/1940,15/02/1981
940,29035030,PRESA AY GRANDE ,CO,MET,CON,ACT,BOLÍVAR,MARÍA LA BAJA,9.8794444,-75.326583,15/08/1969,
941,29035040,NUEVA FLORIDA   ,CP,MET,CON,ACT,BOLÍVAR,MARÍA LA BAJA,9.9441667,-75.351389,15/01/1963,
942,29035050,BELLA FUENTE ,CO,MET,CON,SUS,ATLÁNTICO,SABANALARGA,10.65,-75.016667,15/09/1963,15/03/1971
943,29035060,VERACRUZ ,CO,MET,CON,SUS,ATLÁNTICO,REPELÓN,10.5666667,-75.083333,15/01/1963,15/12/1977
944,29035070,REPELON    ,CP,MET,CON,ACT,ATLÁNTICO,REPELÓN,10.49,-75.126944,15/09/1963,
945,29035080,NORMAL MANATI ,CP,MET,CON,ACT,ATLÁNTICO,MANATÍ,10.4535833,-74.954639,15/10/1963,
946,29035090,ING SANTA CRUZ ,CP,MET,CON,SUS,BOLÍVAR,MAHATES,10.1333333,-75.25,15/02/1968,15/09/1976
947,29035110,SAN PABLO ,CO,MET,CON,ACT,BOLÍVAR,MARÍA LA BAJA,10.0431667,-75.258611,15/10/1963,
948,29035120,LIMON EL ,CO,MET,CON,SUS,ATLÁNTICO,MANATÍ,10.4166667,-75.066667,15/12/1965,15/05/2002
949,29035130,STA LUCIA GJA ,CP,MET,CON,SUS,ATLÁNTICO,SANTA LUCÍA,10.3166667,-74.95,15/03/1968,15/11/1987
950,29035140,AGUAS BLANCAS ,CO,MET,CON,SUS,BOLÍVAR,MARÍA LA BAJA,9.9166667,-75.333333,15/11/1963,15/11/1971
951,29035150,LAMINAS DEL CARIBE ,CO,MET,CON,SUS,SUCRE,SAN ONOFRE,10.0166667,-75.45,15/03/1978,15/07/1979
952,29035170,SINCERIN ,CP,MET,CON,ACT,BOLÍVAR,ARJONA,10.1425833,-75.278278,15/11/1963,
953,29035180,PRESA AY MATUYA ,ME,MET,CON,SUS,BOLÍVAR,MARÍA LA BAJA,9.9284722,-75.279917,15/01/1976,28/08/2014
954,29035200,REPELON AUTOM   ,CP,MET,AUT,ACT,ATLÁNTICO,REPELÓN,10.49,-75.126944,12/9/2007,
955,29037001,TAMBO EL AUTOM  AUT ,HA,HMT,AUT,ACT,BOLÍVAR,ARJONA,10.1843889,-75.283056,27/04/2012,
956,29037002,JUAN GOMEZ AUTOM  ,HA,HMT,AUT,ACT,BOLÍVAR,ARJONA,10.0919306,-75.410686,1/5/2016,
957,29037003,PALOTAL    AUT (29037003),HA,HMT,AUT,ACT,BOLÍVAR,ARJONA,10.0939083,-75.491906,,
958,29037020,CALAMAR ,LM,HID,CON,ACT,BOLÍVAR,CALAMAR,10.2538611,-74.911694,15/07/1940,
959,29037040,INDERENA ,LM,HID,CON,SUS,ATLÁNTICO,MANATÍ,10.4,-75.066667,15/12/1984,15/02/1985
960,29037060,REPELON ,LM,HID,CON,SUS,ATLÁNTICO,REPELÓN,10.49,-75.126944,15/07/1958,15/02/1960
961,29037080,GAMBOTE CANAL DEL ,LG,HID,AUT,ACT,BOLÍVAR,ARJONA,10.1622222,-75.298611,15/01/1959,
962,29037090,VILLARROSA-COMPUER ,LM,HID,CON,SUS,ATLÁNTICO,REPELÓN,10.4166667,-75.15,15/05/1963,15/02/1985
963,29037100,PRESA AY GRANDE ,LM,HID,CON,ACT,BOLÍVAR,MARÍA LA BAJA,9.8751944,-75.3265,15/10/1963,
964,29037110,MAHATES ,LM,HID,CON,SUS,BOLÍVAR,MAHATES,10.25,-75.2,15/09/1963,15/08/1977
965,29037140,MAJAGUA ,LG,HID,CON,SUS,BOLÍVAR,MARÍA LA BAJA,10.0333333,-75.266667,15/08/1964,15/09/1986
966,29037180,CAMPAMENTO ,LG,HID,CON,SUS,BOLÍVAR,MARÍA LA BAJA,9.9666667,-75.283333,15/01/1965,15/12/1995
967,29037190,PRESA AY MATUYA  ,LM,HID,CON,ACT,BOLÍVAR,MARÍA LA BAJA,9.9275,-75.309167,15/01/1965,
968,29037220,COMPUERTAS ,LM,HID,CON,SUS,BOLÍVAR,MARÍA LA BAJA,9.9333333,-75.316667,15/01/1968,15/01/1991
969,29037230,BOQUITAS ,LM,HID,CON,SUS,ATLÁNTICO,SANTA LUCÍA,10.3666667,-75.016667,15/12/1984,15/04/1986
970,29037330,BOQUITAS ,LM,HID,CON,SUS,ATLÁNTICO,SANTA LUCÍA,10.35,-75,15/12/1984,15/02/2001
971,29037360,INKORA K-7 ,LG,HID,CON,SUS,ATLÁNTICO,SANTA LUCÍA,10.3028083,-74.946558,15/08/1972,31/05/2011
972,29037370,STA HELENA 1  ,LM,HID,CON,ACT,BOLÍVAR,MARÍA LA BAJA,10.0586111,-75.402778,15/06/1978,
973,29037380,PTO SANTANDER 1 ,LM,HID,CON,SUS,BOLÍVAR,MARÍA LA BAJA,10,-75.316667,15/06/1978,15/09/1984
974,29037390,CORREA 2   ,LM,HID,CON,ACT,BOLÍVAR,MARÍA LA BAJA,10.0444444,-75.404722,15/05/1978,
975,29037400,CORREA 1 ,LM,HID,CON,SUS,BOLÍVAR,MARÍA LA BAJA,10.0569722,-75.405278,15/06/1978,28/08/2014
976,29037410,CRUCE OLEODUCTO ,LM,HID,CON,SUS,BOLÍVAR,ARJONA,10.0666667,-75.383333,15/06/1978,15/11/1982
977,29037420,SALIDA EMB MATUYA ,LG,HID,CON,SUS,BOLÍVAR,MARÍA LA BAJA,9.9333333,-75.3,15/01/1978,15/05/2002
978,29037440,CERRITOS LOS ,LM,HID,CON,SUS,BOLÍVAR,MARÍA LA BAJA,10.05,-75.383333,15/06/1978,15/11/1982
979,29037450,STA HELENA 2  ,LM,HID,CON,ACT,BOLÍVAR,ARJONA,10.0680556,-75.435833,15/06/1978,
980,29037460,PTO SANTANDER   ,LM,HID,CON,ACT,BOLÍVAR,MARÍA LA BAJA,10.0069444,-75.318889,15/12/1979,
981,29037470,ALTAMIRA ,LM,HID,CON,SUS,BOLÍVAR,MARÍA LA BAJA,9.9666667,-75.333333,15/12/1979,15/11/1982
982,29037480,RADIAL PPAL 12 ,LM,HID,CON,SUS,BOLÍVAR,MARÍA LA BAJA,10.1,-75.266667,15/03/1980,15/05/2002
983,29037490,RADIAL PPAL 8 ,LM,HID,CON,SUS,BOLÍVAR,MARÍA LA BAJA,10.05,-75.266667,15/03/1980,15/04/1993
984,29037500,RADIAL PPAL 6 ,LM,HID,CON,SUS,BOLÍVAR,MARÍA LA BAJA,10.0333333,-75.283333,15/03/1980,15/04/1993
985,29037510,AHUYAMAL ,LM,HID,CON,SUS,ATLÁNTICO,MANATÍ,10.4666667,-75.116667,15/12/1984,15/02/1985
986,29037610,KILOMETRO 107   ,LM,HID,CON,ACT,BOLÍVAR,CARTAGENA DE INDIAS,10.2280556,-75.523056,15/04/1981,
987,29037620,BARBACOAS ,LM,HID,CON,SUS,BOLÍVAR,CARTAGENA DE INDIAS,10.2333333,-75.516667,15/04/1981,15/01/1991
988,29037630,EMBALSE MATUYA ,LM,HID,CON,SUS,BOLÍVAR,MARÍA LA BAJA,9.9333333,-75.283333,15/01/1978,15/03/1982
989,29037640,AY MORENA ,LM,HID,CON,SUS,BOLÍVAR,EL CARMEN DE BOLÍVAR,9.85,-75.25,15/01/1978,15/02/1978
990,29037660,COMPUERTA RADIAL ,LM,HID,CON,SUS,BOLÍVAR,MARÍA LA BAJA,9.95,-75.283333,15/12/1979,15/01/1980
991,29037670,RADIAL PPAL 4 ,LG,HID,CON,SUS,BOLÍVAR,MARÍA LA BAJA,9.95,-75.3,15/12/1979,15/05/2002
992,29037680,SALIDA EMB GRANDE ,LM,HID,CON,SUS,BOLÍVAR,MARÍA LA BAJA,9.8833333,-75.35,15/12/1981,15/08/2003
993,29037701,GUAJARO COMPUERTAS ,LG,HID,AUT,ACT,BOLÍVAR,SAN CRISTOBAL,10.4097222,-75.074161,28/03/2014,
994,29037702,CAPOTE AUTOM ,LG,HID,AUT,ACT,BOLÍVAR,MAHATES,10.2784444,-75.165333,1/4/2014,
995,29037703,GAMBOTE ,LG,HID,CAM,ACT,BOLÍVAR,ARJONA,10.1666667,-75.3,27/04/2012,
996,29037720,ESTRUCTURA K 1+870 ,LM,HID,CON,SUS,BOLÍVAR,MARÍA LA BAJA,9.9833333,-75.3,15/01/1980,15/05/2002
997,29037730,AY MARIA MATAMBA ,LM,HID,CON,SUS,BOLÍVAR,EL CARMEN DE BOLÍVAR,9.8666667,-75.25,15/01/1978,15/02/1978
998,29037740,PAVA ,LG,HID,CON,SUS,BOLÍVAR,MARÍA LA BAJA,10.0833333,-75.25,15/06/1983,15/01/1991
999,29037750,MESITA    ,LG,HID,CON,ACT,BOLÍVAR,EL CARMEN DE BOLÍVAR,9.8719444,-75.303333,15/06/1983,
1000,29037760,ESPERANZA LA   ,LG,HID,CON,ACT,BOLÍVAR,EL CARMEN DE BOLÍVAR,9.8716667,-75.275278,15/06/1983,
1001,29037770,SAN CRISTOBAL   ,LG,HID,CON,ACT,BOLÍVAR,SAN JACINTO,9.8861111,-75.248611,15/06/1983,
1002,29037780,ARRASTRE EL ,LM,HID,CON,SUS,BOLÍVAR,ARJONA,10.0833333,-75.4,15/02/1978,15/10/1982
1003,29037790,CASA DE BOMBAS ,LM,HID,CON,SUS,ATLÁNTICO,REPELÓN,10.5,-75.116667,15/08/1983,15/09/2005
1004,29037800,COMPUERTAS C DIQUE ,LM,HID,CON,ACT,ATLÁNTICO,MANATÍ,10.4096111,-75.074028,15/08/1983,
1005,29037810,COMPUERTAS GUAJARO ,LM,HID,CON,SUS,ATLÁNTICO,MANATÍ,10.4,-75.066667,15/08/1983,15/09/2005
1006,29037820,PTE CALAMAR AUTOM  ,LM,HID,AUT,ACT,BOLÍVAR,CALAMAR,10.2617778,-74.9125,25/10/2011,
1007,29037880,RADIAL PASTON ,LM,HID,CON,SUS,BOLÍVAR,MAHATES,10.0833333,-75.25,15/03/1984,15/05/2002
1008,29040020,MONTEBELLO ,PM,MET,CON,ACT,ATLÁNTICO,BARANOA,10.7085,-74.907833,15/12/1985,
1009,29040070,PONEDERA ,PM,MET,CON,ACT,ATLÁNTICO,PONEDERA,10.6417778,-74.770722,15/03/1959,
1010,29040080,POLONUEVO ,PM,MET,CON,ACT,ATLÁNTICO,POLONUEVO,10.779,-74.857917,15/03/1959,
1011,29040190,SABANALARGA ,PM,MET,CON,ACT,ATLÁNTICO,SABANALARGA,10.6367222,-74.918889,15/03/1959,
1012,29040200,LENA    ,PM,MET,CON,ACT,ATLÁNTICO,CANDELARIA,10.5217222,-74.890778,15/06/1969,
1013,29040230,PTO COLOMBIA ,PM,MET,CON,ACT,ATLÁNTICO,PUERTO COLOMBIA,10.9883333,-74.969667,15/04/1974,
1014,29040240,USIACURI    ,PG,MET,CON,ACT,ATLÁNTICO,USIACURÍ,10.7447222,-74.980556,15/02/1964,
1015,29040250,CAMPO DE LA CRUZ ,PM,MET,CON,ACT,ATLÁNTICO,CAMPO DE LA CRUZ,10.3766389,-74.888417,15/09/1978,
1016,29040260,CANDELARIA ,PM,MET,CON,ACT,ATLÁNTICO,CANDELARIA,10.4551111,-74.886889,15/09/1978,
1017,29040270,RABON EL HDA  ,PM,MET,CON,ACT,ATLÁNTICO,SANTA LUCÍA,10.3869444,-74.962778,15/09/1978,
1018,29040290,CAMPANOS LOS ,PM,MET,CON,ACT,ATLÁNTICO,SABANALARGA,10.5577778,-74.971778,15/08/1978,
1019,29040300,PTO GIRALDO ,PM,MET,CON,ACT,ATLÁNTICO,PONEDERA,10.5078889,-74.822278,15/09/1978,
1020,29040310,SAN PEDRITO ALERTA ,PM,MET,CON,ACT,ATLÁNTICO,SUAN,10.2778889,-74.920222,15/09/1978,
1021,29040390,GALLEGO ,PM,MET,CON,SUS,ATLÁNTICO,SABANALARGA,10.6166667,-75,15/09/1969,15/07/1976
1022,29040400,JUAN DE ACOSTA ,PM,MET,CON,SUS,ATLÁNTICO,JUAN DE ACOSTA,10.8333333,-75.033333,15/03/1959,15/10/1971
1023,29040410,USIACURI ,PG,MET,CON,SUS,ATLÁNTICO,USIACURÍ,10.7447222,-74.980556,15/11/1963,15/07/1971
1024,29040450,BARRANQUILLA SEDE ,PM,MET,CON,ACT,ATLÁNTICO,BARRANQUILLA,10.9976111,-74.796722,1/11/2007,
1025,29045000,SABANALARGA AUTOMATICA ,CP,MET,AUT,ACT,ATLÁNTICO,SABANALARGA,10.6367222,-74.918889,5/5/2013,
1026,29045020,A.E CORTISSOZ   ,AM,MET,CON,ACT,ATLÁNTICO,SOLEDAD,10.9177778,-74.779722,15/05/1940,
1027,29045030,SABANALARGA ,CO,MET,CON,SUS,ATLÁNTICO,SABANALARGA,10.6367222,-74.918889,15/09/1931,15/12/1942
1028,29045090,MALAMBITO ,CO,MET,CON,SUS,ATLÁNTICO,SUAN,10.3,-74.9,15/10/1969,15/08/1978
1029,29045100,BASE NAVAL ,CP,MET,CON,SUS,ATLÁNTICO,BARRANQUILLA,11,-74.783333,15/06/1973,15/09/1992
1030,29045110,JUAN DE ACOSTA  ,CO,MET,CON,ACT,ATLÁNTICO,JUAN DE ACOSTA,10.8338889,-75.046111,15/01/1964,
1031,29045120,FLORES LAS   ,CP,MET,CON,ACT,ATLÁNTICO,BARRANQUILLA,11.04,-74.820833,15/04/1971,
1032,29045180,LAS FLORES AUTOM  ,CP,MET,AUT,SUS,ATLÁNTICO,BARRANQUILLA,11.04,-74.820833,31/08/2006,6/1/2016
1033,29045190,A.E.CORTISSOZ AUTOM   ,SP,MET,AUT,ACT,ATLÁNTICO,SOLEDAD,10.9177778,-74.779722,4/5/2005,
1034,29045200,ESC NAVAL BARRANQUILLA ,CP,MET,AUT,ACT,ATLÁNTICO,BARRANQUILLA,11.0063889,-74.785,10/6/2016,
1035,29047000,TEBSA BQUILLA ,HA,HMT,AUT,ACT,ATLÁNTICO,SOLEDAD,10.9366389,-74.759889,5/5/2013,
1036,29047060,PLANTA EL RIO ,LM,HID,CON,SUS,ATLÁNTICO,BARRANQUILLA,10.9666667,-74.766667,15/06/1978,15/01/1988
1037,29047070,SAN PEDRITO AUTOMATICA,HA,HMT,AUT,ACT,ATLÁNTICO,SUAN,10.2682222,-74.907861,15/05/1978,
1038,29047080,DARCENA BARRANQUIL   ,LG,HID,CON,ACT,ATLÁNTICO,BARRANQUILLA,10.9663889,-74.76,2/9/2006,
1039,29057001,SAN CRISTOBAL ,HA,HMT,AUT,ACT,BOLÍVAR,SAN CRISTOBAL,10.3922778,-75.061444,1/4/2014,
1040,29057002,LEQUERICA AUTOM   AUT  ,HA,HMT,AUT,ACT,BOLÍVAR,CARTAGENA DE INDIAS,10.2376667,-75.518861,1/4/2016,
1041,29057003,MACHADO  AUT  ,HA,HMT,AUT,ACT,BOLÍVAR,ARROYOHONDO,10.2347222,-74.968972,1/10/2014,
