FeatureActionID,SamplingFeatureID,Areaoperativa,Entidad,SamplingFeatureCode,SamplingFeatureName,Clase,SamplingFeatureDescription,SamplingFeatureTypeCV,Estado,Departamento,Municipio,Corriente,Latitude,Longitude,Elevation_m,Fecha_instalacion,Fecha_suspension,SamplingFeatureGeotypeCV,FeatureGeometry,ElevationDatumCV,SiteTypeCV,SpatialReferenceID,ActionID
58,58,AREA OPERATIVA 01,IDEAM,11110020,ABRIAQUI ,METEOROLOGICA,PLUVIOGRAFICA,weatherStation,ACTIVA,ANTIOQUIA,ABRIAQUÍ,HERRADURA,6.6425,-76.075,1920,15/12/1974,,point,POINTZ(-76.075 6.6425 1920),GEOCOL2004,atmosphere,1,1
62,62,AREA OPERATIVA 01,IDEAM,11110110,BOQUERON DE TOYO ,METEOROLOGICA,PLUVIOGRAFICA,weatherStation,SUSPENDIDA,ANTIOQUIA,GIRALDO,SUCIO,6.6994444,-75.9775,2000,15/05/1983,10/05/2011 12:00:00 AM,point,POINTZ(-75.9775 6.6994444 2000),GEOCOL2004,atmosphere,1,1
109,109,AREA OPERATIVA 01,IDEAM,12010160,SAN JOSE APARTADO ,METEOROLOGICA,PLUVIOGRAFICA,weatherStation,SUSPENDIDA,ANTIOQUIA,APARTADÓ,APARTADO,7.8666667,-76.6,100,15/08/1984,15/12/1997,point,POINTZ(-76.6 7.8666667 100),GEOCOL2004,atmosphere,1,1
110,110,AREA OPERATIVA 01,IDEAM,12010170,NUEVO ORIENTE   ,METEOROLOGICA,PLUVIOGRAFICA,weatherStation,ACTIVA,ANTIOQUIA,TURBO,TUMARADO,7.4603333,-76.6895556,23,15/03/1991,,point,POINTZ(-76.6895556 7.4603333 23),GEOCOL2004,atmosphere,1,1
111,111,AREA OPERATIVA 01,IDEAM,12010180,CHOROMANDO HDA ,METEOROLOGICA,PLUVIOGRAFICA,weatherStation,SUSPENDIDA,ANTIOQUIA,TURBO,GRANDE,7.95,-76.5833333,150,15/08/1984,15/10/1997,point,POINTZ(-76.5833333 7.95 150),GEOCOL2004,atmosphere,1,1
134,134,AREA OPERATIVA 01,IDEAM,12020170,PLAYONA LA ,METEOROLOGICA,PLUVIOGRAFICA,weatherStation,SUSPENDIDA,ANTIOQUIA,TURBO,TURBO,8.1833333,-76.65,150,15/08/1984,15/10/1992,point,POINTZ(-76.65 8.1833333 150),GEOCOL2004,atmosphere,1,1
160,160,AREA OPERATIVA 02,IDEAM,13010050,URRA SANDUBO ,METEOROLOGICA,PLUVIOGRAFICA,weatherStation,SUSPENDIDA,CÓRDOBA,TIERRALTA,SINU,7.7515,-76.2277778,150,25/03/2009,29/09/2010,point,POINTZ(-76.2277778 7.7515 150),GEOCOL2004,atmosphere,1,1
181,181,AREA OPERATIVA 02,IDEAM,13030030,URRA 1 ,METEOROLOGICA,PLUVIOGRAFICA,weatherStation,SUSPENDIDA,CÓRDOBA,TIERRALTA,SINU,7.9833333,-76.2333333,78,15/05/1983,15/05/1996,point,POINTZ(-76.2333333 7.9833333 78),GEOCOL2004,atmosphere,1,1
225,225,AREA OPERATIVA 02,IDEAM,13070080,SIGLO EL ,METEOROLOGICA,PLUVIOGRAFICA,weatherStation,SUSPENDIDA,CÓRDOBA,CIÉNAGA DE ORO,AY VENADO,8.95,-75.5666667,40,15/05/1986,15/02/2002,point,POINTZ(-75.5666667 8.95 40),GEOCOL2004,atmosphere,1,1
230,230,AREA OPERATIVA 02,IDEAM,13070130,CALIFORNIA ,METEOROLOGICA,PLUVIOGRAFICA,weatherStation,SUSPENDIDA,CÓRDOBA,MONTERÍA,SINU,8.7833333,-75.8333333,13,15/08/1974,15/02/2002,point,POINTZ(-75.8333333 8.7833333 13),GEOCOL2004,atmosphere,1,1
231,231,AREA OPERATIVA 02,IDEAM,13070140,COROZA 1 ,METEOROLOGICA,PLUVIOGRAFICA,weatherStation,SUSPENDIDA,CÓRDOBA,CERETÉ,SINU,8.8333333,-75.75,9,15/08/1974,15/02/2002,point,POINTZ(-75.75 8.8333333 9),GEOCOL2004,atmosphere,1,1
232,232,AREA OPERATIVA 02,IDEAM,13070150,MOCARI ,METEOROLOGICA,PLUVIOGRAFICA,weatherStation,SUSPENDIDA,CÓRDOBA,MONTERÍA,SINU,8.8,-75.8666667,14,15/08/1974,15/05/2002,point,POINTZ(-75.8666667 8.8 14),GEOCOL2004,atmosphere,1,1
248,248,AREA OPERATIVA 02,IDEAM,13070310,CHIMA ,METEOROLOGICA,PLUVIOGRAFICA,weatherStation,SUSPENDIDA,CÓRDOBA,CHIMA,AY AGUAS PRIETAS,9.15,-75.6166667,30,15/11/1965,15/05/1971,point,POINTZ(-75.6166667 9.15 30),GEOCOL2004,atmosphere,1,1
250,250,AREA OPERATIVA 02,IDEAM,13070330,ICOTEAS LAS ,METEOROLOGICA,PLUVIOGRAFICA,weatherStation,SUSPENDIDA,CÓRDOBA,COTORRA,SINU,9.05,-75.7666667,20,15/11/1974,15/02/1977,point,POINTZ(-75.7666667 9.05 20),GEOCOL2004,atmosphere,1,1
294,294,AREA OPERATIVA 02,IDEAM,13080030,SAN ANTONIO ,METEOROLOGICA,PLUVIOGRAFICA,weatherStation,SUSPENDIDA,CÓRDOBA,SAN PELAYO,SINU,8.9333333,-75.9833333,50,15/09/1965,15/03/1971,point,POINTZ(-75.9833333 8.9333333 50),GEOCOL2004,atmosphere,1,1
324,324,AREA OPERATIVA 02,IDEAM,14010010,PIOJO ,METEOROLOGICA,PLUVIOGRAFICA,weatherStation,ACTIVA,ATLÁNTICO,PIOJÓ,AY GUAMO,10.7461111,-75.1079722,320,15/04/1962,,point,POINTZ(-75.1079722 10.7461111 320),GEOCOL2004,atmosphere,1,1
327,327,AREA OPERATIVA 02,IDEAM,14010040,BUENAVISTA ,METEOROLOGICA,PLUVIOGRAFICA,weatherStation,SUSPENDIDA,ATLÁNTICO,PIOJÓ,AY GALLINAZO,10.75,-75.0833333,60,15/11/1963,15/07/1971,point,POINTZ(-75.0833333 10.75 60),GEOCOL2004,atmosphere,1,1
345,345,AREA OPERATIVA 05,IDEAM,15010030,GUACHACA 2 ,METEOROLOGICA,PLUVIOGRAFICA,weatherStation,SUSPENDIDA,MAGDALENA,SANTA MARTA,QDA LA SOMBRA,11.1,-73.85,750,15/02/1969,15/05/1971,point,POINTZ(-73.85 11.1 750),GEOCOL2004,atmosphere,1,1
358,358,AREA OPERATIVA 05,IDEAM,15010300,GUACHACA    ,METEOROLOGICA,PLUVIOGRAFICA,weatherStation,ACTIVA,MAGDALENA,SANTA MARTA,LA SOMBRA,11.2563889,-73.8366667,45,15/05/1967,,point,POINTZ(-73.8366667 11.2563889 45),GEOCOL2004,atmosphere,1,1
408,408,AREA OPERATIVA 05,IDEAM,15060090,GUACAMAYO    ,METEOROLOGICA,PLUVIOGRAFICA,weatherStation,ACTIVA,LA GUAJIRA,HATO NUEVO,RANCHERIA,11.0633889,-72.7766944,220,15/08/1987,,point,POINTZ(-72.7766944 11.0633889 220),GEOCOL2004,atmosphere,1,1
411,411,AREA OPERATIVA 05,IDEAM,15060120,PALMAR EL HDA ,METEOROLOGICA,PLUVIOGRAFICA,weatherStation,SUSPENDIDA,LA GUAJIRA,BARRANCAS,RANCHERIA,11.0833333,-72.6666667,105,15/03/1979,15/06/1987,point,POINTZ(-72.6666667 11.0833333 105),GEOCOL2004,atmosphere,1,1
412,412,AREA OPERATIVA 05,IDEAM,15060130,ESPERANZA LA HDA  ,METEOROLOGICA,PLUVIOGRAFICA,weatherStation,ACTIVA,LA GUAJIRA,ALBANIA,RANCHERIA,11.142,-72.5084722,87,15/05/1978,,point,POINTZ(-72.5084722 11.142 87),GEOCOL2004,atmosphere,1,1
413,413,AREA OPERATIVA 05,IDEAM,15060140,SAN FRANCISCO ,METEOROLOGICA,PLUVIOGRAFICA,weatherStation,SUSPENDIDA,LA GUAJIRA,ALBANIA,RANCHERIA,11.15,-72.5333333,115,15/05/1978,15/02/1996,point,POINTZ(-72.5333333 11.15 115),GEOCOL2004,atmosphere,1,1
415,415,AREA OPERATIVA 05,IDEAM,15060160,PAJONALES HDA ,METEOROLOGICA,PLUVIOGRAFICA,weatherStation,SUSPENDIDA,LA GUAJIRA,BARRANCAS,RANCHERIA,11.0833333,-72.6,116,15/05/1978,15/02/1996,point,POINTZ(-72.6 11.0833333 116),GEOCOL2004,atmosphere,1,1
419,419,AREA OPERATIVA 05,IDEAM,15060200,ROCHE ,METEOROLOGICA,PLUVIOGRAFICA,weatherStation,ACTIVA,LA GUAJIRA,BARRANCAS,RANCHERIA,11.0750556,-72.6473333,100,15/10/1987,,point,POINTZ(-72.6473333 11.0750556 100),GEOCOL2004,atmosphere,1,1
420,420,AREA OPERATIVA 05,IDEAM,15060210,TAJO SUR   ,METEOROLOGICA,PLUVIOGRAFICA,weatherStation,ACTIVA,LA GUAJIRA,BARRANCAS,AY TABACO,11.0768889,-72.675,95,15/04/1989,,point,POINTZ(-72.675 11.0768889 95),GEOCOL2004,atmosphere,1,1
425,425,AREA OPERATIVA 05,IDEAM,15060290,CERCADO EL AUTOMATICO ,METEOROLOGICA,PLUVIOGRAFICA,weatherStation,SUSPENDIDA,LA GUAJIRA,FONSECA,RANCHERIA,10.9151389,-73.0115278,400,04/09/2004 12:00:00 AM,29/09/2010,point,POINTZ(-73.0115278 10.9151389 400),GEOCOL2004,atmosphere,1,1
534,534,AREA OPERATIVA 08,IDEAM,16010070,PRIMAVERA LA ,METEOROLOGICA,PLUVIOGRAFICA,weatherStation,SUSPENDIDA,NORTE DE SANTANDER,CÚCUTA,PAMPLONITA,8.2666667,-72.45,70,15/02/1967,15/09/1991,point,POINTZ(-72.45 8.2666667 70),GEOCOL2004,atmosphere,1,1
543,543,AREA OPERATIVA 08,IDEAM,16010330,SAN FAUSTINO ,METEOROLOGICA,PLUVIOGRAFICA,weatherStation,SUSPENDIDA,NORTE DE SANTANDER,CÚCUTA,QDA FAUSTINERA,8.0666667,-72.4166667,200,15/11/1983,15/04/2002,point,POINTZ(-72.4166667 8.0666667 200),GEOCOL2004,atmosphere,1,1
596,596,AREA OPERATIVA 08,IDEAM,16020510,LIMONCITO ,METEOROLOGICA,PLUVIOGRAFICA,weatherStation,SUSPENDIDA,NORTE DE SANTANDER,CÚCUTA,ZULIA,8.1,-72.5666667,120,15/11/1981,15/02/2002,point,POINTZ(-72.5666667 8.1 120),GEOCOL2004,atmosphere,1,1
597,597,AREA OPERATIVA 08,IDEAM,16020520,TERMOTASAJERO AUTOMATICA ,METEOROLOGICA,PLUVIOGRAFICA,weatherStation,SUSPENDIDA,NORTE DE SANTANDER,DURANIA,ZULIA,7.8333333,-72.6333333,255,15/10/2004,29/09/2010,point,POINTZ(-72.6333333 7.8333333 255),GEOCOL2004,atmosphere,1,1
689,689,AREA OPERATIVA 08,IDEAM,16050140,JURISDICCIONES ,METEOROLOGICA,PLUVIOGRAFICA,weatherStation,SUSPENDIDA,NORTE DE SANTANDER,ÁBREGO,FRIO,7.85,-73.2333333,3850,15/10/1976,15/08/1988,point,POINTZ(-73.2333333 7.85 3850),GEOCOL2004,atmosphere,1,1
699,699,AREA OPERATIVA 08,IDEAM,16050290,MARAVILLA  LA ,METEOROLOGICA,PLUVIOGRAFICA,weatherStation,ACTIVA,NORTE DE SANTANDER,SAN CALIXTO,ALGODONAL,8.4077778,-73.2136111,1650,10/08/2009 12:00:00 AM,,point,POINTZ(-73.2136111 8.4077778 1650),GEOCOL2004,atmosphere,1,1
706,706,AREA OPERATIVA 08,IDEAM,16055080,MARAVILLA LA ,METEOROLOGICA,PLUVIOGRAFICA,weatherStation,SUSPENDIDA,NORTE DE SANTANDER,SAN CALIXTO,ALGODONAL,8.4077778,-73.2136111,1650,15/07/1986,10/08/2009 12:00:00 AM,point,POINTZ(-73.2136111 8.4077778 1650),GEOCOL2004,atmosphere,1,1
727,727,AREA OPERATIVA 11,IDEAM,17010010,EMPOISLAS ,METEOROLOGICA,PLUVIOGRAFICA,weatherStation,ACTIVA,SAN ANDRÉS PROVIDENCIA ,SAN ANDRÉS,MAR CARIBE,12.53975,-81.72025,80,15/04/1973,,point,POINTZ(-81.72025 12.53975 80),GEOCOL2004,atmosphere,1,1
867,867,AREA OPERATIVA 04,IDEAM,21080080,MINA LA ,METEOROLOGICA,PLUVIOGRAFICA,weatherStation,ACTIVA,HUILA,TERUEL,PEDERNAL,2.7930556,-75.632,1800,15/11/1975,,point,POINTZ(-75.632 2.7930556 1800),GEOCOL2004,atmosphere,1,1
868,868,AREA OPERATIVA 04,IDEAM,21080090,ARMENIA LA ,METEOROLOGICA,PLUVIOGRAFICA,weatherStation,SUSPENDIDA,HUILA,TERUEL,PEDERNAL,2.85,-75.55,2700,15/04/1976,15/05/1994,point,POINTZ(-75.55 2.85 2700),GEOCOL2004,atmosphere,1,1
870,870,AREA OPERATIVA 04,IDEAM,21080110,SAN JOSE HDA ,METEOROLOGICA,PLUVIOGRAFICA,weatherStation,ACTIVA,HUILA,TESALIA,YAGUARA,2.5786944,-75.7186667,1000,15/06/1983,,point,POINTZ(-75.7186667 2.5786944 1000),GEOCOL2004,atmosphere,1,1
871,871,AREA OPERATIVA 04,IDEAM,21080120,BUENAVISTA HDA ,METEOROLOGICA,PLUVIOGRAFICA,weatherStation,SUSPENDIDA,HUILA,ÍQUIRA,YAGUARA,2.65,-75.7333333,1720,15/06/1983,15/12/1995,point,POINTZ(-75.7333333 2.65 1720),GEOCOL2004,atmosphere,1,1
872,872,AREA OPERATIVA 04,IDEAM,21080130,TOTUMO EL HDA ,METEOROLOGICA,PLUVIOGRAFICA,weatherStation,ACTIVA,HUILA,ÍQUIRA,YAGUARA,2.59375,-75.6211944,790,15/06/1983,,point,POINTZ(-75.6211944 2.59375 790),GEOCOL2004,atmosphere,1,1
907,907,AREA OPERATIVA 04,IDEAM,21100070,STA BARBARA FCA ,METEOROLOGICA,PLUVIOGRAFICA,weatherStation,ACTIVA,HUILA,ALGECIRAS,NEIVA,2.5617222,-75.2351389,1750,15/12/1986,,point,POINTZ(-75.2351389 2.5617222 1750),GEOCOL2004,atmosphere,1,1
925,925,AREA OPERATIVA 04,IDEAM,21110130,PUEBLO NUEVO ,METEOROLOGICA,PLUVIOGRAFICA,weatherStation,SUSPENDIDA,HUILA,NEIVA,CEIBAS,2.8055,-75.0853333,1580,15/05/1985,06/03/2016 12:00:00 AM,point,POINTZ(-75.0853333 2.8055 1580),GEOCOL2004,atmosphere,1,1
935,935,AREA OPERATIVA 04,IDEAM,21110400,STA HELENA ,METEOROLOGICA,PLUVIOGRAFICA,weatherStation,ACTIVA,HUILA,NEIVA,CEIBAS,2.8511389,-75.1081944,1160,15/06/1983,,point,POINTZ(-75.1081944 2.8511389 1160),GEOCOL2004,atmosphere,1,1
936,936,AREA OPERATIVA 04,IDEAM,21110410,COLONIA LA HDA ,METEOROLOGICA,PLUVIOGRAFICA,weatherStation,SUSPENDIDA,HUILA,NEIVA,CEIBAS,2.8,-75.0833333,2100,15/06/1983,15/09/1995,point,POINTZ(-75.0833333 2.8 2100),GEOCOL2004,atmosphere,1,1
937,937,AREA OPERATIVA 04,IDEAM,21110420,ANTENA CERRO NEIVA ,METEOROLOGICA,PLUVIOGRAFICA,weatherStation,SUSPENDIDA,HUILA,NEIVA,CEIBAS,2.85,-75.2,2030,15/06/1983,15/03/1995,point,POINTZ(-75.2 2.85 2030),GEOCOL2004,atmosphere,1,1
938,938,AREA OPERATIVA 04,IDEAM,21110430,GIRONDA LA HDA ,METEOROLOGICA,PLUVIOGRAFICA,weatherStation,ACTIVA,HUILA,NEIVA,CEIBAS,2.9061389,-75.1204444,1060,15/06/1983,,point,POINTZ(-75.1204444 2.9061389 1060),GEOCOL2004,atmosphere,1,1
991,991,AREA OPERATIVA 04,IDEAM,21130110,PRAGA ,METEOROLOGICA,PLUVIOGRAFICA,weatherStation,ACTIVA,HUILA,AIPE,AIPE,3.2685833,-75.4906667,1085,15/04/1973,,point,POINTZ(-75.4906667 3.2685833 1085),GEOCOL2004,atmosphere,1,1
1014,1014,AREA OPERATIVA 04,IDEAM,21140130,LIBANO EL ,METEOROLOGICA,PLUVIOGRAFICA,weatherStation,ACTIVA,HUILA,COLOMBIA,CABRERA,3.6454722,-74.6668889,2000,15/04/1973,,point,POINTZ(-74.6668889 3.6454722 2000),GEOCOL2004,atmosphere,1,1
1047,1047,AREA OPERATIVA 10,IDEAM,21160230,ESPERANZA FINCA ,METEOROLOGICA,PLUVIOGRAFICA,weatherStation,SUSPENDIDA,TOLIMA,CUNDAY,QDA LA BAJA,3.8936667,-74.7649444,422,18/05/1996,29/09/2010,point,POINTZ(-74.7649444 3.8936667 422),GEOCOL2004,atmosphere,1,1
1048,1048,AREA OPERATIVA 10,IDEAM,21160260,PTO LLERAS TOLIMA  ,METEOROLOGICA,PLUVIOGRAFICA,weatherStation,ACTIVA,TOLIMA,VILLARRICA,CUINDE,3.8397778,-74.6883056,1209,16/05/1996,,point,POINTZ(-74.6883056 3.8397778 1209),GEOCOL2004,atmosphere,1,1
1080,1080,AREA OPERATIVA 11,IDEAM,21190030,TIBACUY ,METEOROLOGICA,PLUVIOGRAFICA,weatherStation,ACTIVA,CUNDINAMARCA,TIBACUY,SUBIA,4.3480556,-74.4544722,1635,15/10/1986,,point,POINTZ(-74.4544722 4.3480556 1635),GEOCOL2004,atmosphere,1,1
1122,1122,AREA OPERATIVA 11,IDEAM,21201060,PANTANO REDONDO 1 ,METEOROLOGICA,PLUVIOGRAFICA,weatherStation,ACTIVA,CUNDINAMARCA,ZIPAQUIRÁ,FRIO,5.04325,-74.0333889,3160,15/01/1951,,point,POINTZ(-74.0333889 5.04325 3160),GEOCOL2004,atmosphere,1,1
1128,1128,AREA OPERATIVA 11,IDEAM,21201160,EDIFICIO SARAGA ,METEOROLOGICA,PLUVIOGRAFICA,weatherStation,SUSPENDIDA,BOGOTA D.C.,BOGOTA D.C.,BOGOTA,4.6,-74.0833333,2640,15/11/1976,15/09/1986,point,POINTZ(-74.0833333 4.6 2640),GEOCOL2004,atmosphere,1,1
1144,1144,AREA OPERATIVA 11,IDEAM,21201600,SEDE IDEAM KRA 10 ,METEOROLOGICA,PLUVIOGRAFICA,weatherStation,ACTIVA,BOGOTA D.C.,BOGOTA D.C.,,4.6071111,-74.0728889,2685,15/09/1986,,point,POINTZ(-74.0728889 4.6071111 2685),GEOCOL2004,atmosphere,1,1
1147,1147,AREA OPERATIVA 11,IDEAM,21201630,TABIO GJA ,METEOROLOGICA,PLUVIOGRAFICA,weatherStation,ACTIVA,CUNDINAMARCA,TABIO,BOGOTA,4.9330556,-74.0656111,2600,15/05/1987,,point,POINTZ(-74.0656111 4.9330556 2600),GEOCOL2004,atmosphere,1,1
1148,1148,AREA OPERATIVA 11,IDEAM,21201640,VILLAPINZON GJA ,METEOROLOGICA,PLUVIOGRAFICA,weatherStation,ACTIVA,CUNDINAMARCA,VILLAPINZÓN,BOGOTA,5.26375,-73.5908611,2745,15/05/1987,,point,POINTZ(-73.5908611 5.26375 2745),GEOCOL2004,atmosphere,1,1
1153,1153,AREA OPERATIVA 11,IDEAM,21202100,IDEAM FONTIBON HB ,METEOROLOGICA,PLUVIOGRAFICA,weatherStation,SUSPENDIDA,BOGOTA D.C.,BOGOTA D.C.,BOGOTA,4.7,-74.1666667,2511,15/06/1998,11/12/2008 12:00:00 AM,point,POINTZ(-74.1666667 4.7 2511),GEOCOL2004,atmosphere,1,1
1256,1256,AREA OPERATIVA 10,IDEAM,21210020,JUNTAS LAS ,METEOROLOGICA,PLUVIOGRAFICA,weatherStation,ACTIVA,TOLIMA,IBAGUÉ,QDA PERLAS,4.5563056,-75.3216389,1765,15/08/1971,,point,POINTZ(-75.3216389 4.5563056 1765),GEOCOL2004,atmosphere,1,1
1257,1257,AREA OPERATIVA 10,IDEAM,21210030,PASTALES ,METEOROLOGICA,PLUVIOGRAFICA,weatherStation,ACTIVA,TOLIMA,IBAGUÉ,COMBEIMA,4.5110556,-75.3008333,1602,15/05/1958,,point,POINTZ(-75.3008333 4.5110556 1602),GEOCOL2004,atmosphere,1,1
1259,1259,AREA OPERATIVA 10,IDEAM,21210080,SECRETO EL   ,METEOROLOGICA,PLUVIOGRAFICA,weatherStation,ACTIVA,TOLIMA,IBAGUÉ,COMBEIMA,4.4942778,-75.2899444,1482,15/05/1985,,point,POINTZ(-75.2899444 4.4942778 1482),GEOCOL2004,atmosphere,1,1
1260,1260,AREA OPERATIVA 10,IDEAM,21210100,RANCHO EL ,METEOROLOGICA,PLUVIOGRAFICA,weatherStation,SUSPENDIDA,TOLIMA,IBAGUÉ,COMBEIMA,4.6003056,-75.3304444,2670,15/06/1983,31/07/1998,point,POINTZ(-75.3304444 4.6003056 2670),GEOCOL2004,atmosphere,1,1
1261,1261,AREA OPERATIVA 10,IDEAM,21210110,PLACER EL ,METEOROLOGICA,PLUVIOGRAFICA,weatherStation,ACTIVA,TOLIMA,IBAGUÉ,COMBEIMA,4.5209444,-75.2778889,2170,15/06/1983,,point,POINTZ(-75.2778889 4.5209444 2170),GEOCOL2004,atmosphere,1,1
1262,1262,AREA OPERATIVA 10,IDEAM,21210120,ESMERALDA LA ,METEOROLOGICA,PLUVIOGRAFICA,weatherStation,ACTIVA,TOLIMA,IBAGUÉ,QDA CAY,4.4909167,-75.2394167,1965,15/06/1983,,point,POINTZ(-75.2394167 4.4909167 1965),GEOCOL2004,atmosphere,1,1
1266,1266,AREA OPERATIVA 10,IDEAM,21210160,DARIEN EL ,METEOROLOGICA,PLUVIOGRAFICA,weatherStation,ACTIVA,TOLIMA,IBAGUÉ,QDA CORAZON,4.4666667,-75.3042778,1920,15/09/1984,,point,POINTZ(-75.3042778 4.4666667 1920),GEOCOL2004,atmosphere,1,1
1268,1268,AREA OPERATIVA 10,IDEAM,21210180,TOCHE    ,METEOROLOGICA,PLUVIOGRAFICA,weatherStation,ACTIVA,TOLIMA,IBAGUÉ,COELLO,4.5195,-75.4098333,1991,15/10/1986,,point,POINTZ(-75.4098333 4.5195 1991),GEOCOL2004,atmosphere,1,1
1269,1269,AREA OPERATIVA 10,IDEAM,21210190,RESACA LA ,METEOROLOGICA,PLUVIOGRAFICA,weatherStation,ACTIVA,TOLIMA,SAN LUIS,LUISA,4.2745,-75.1484167,1250,15/11/1986,,point,POINTZ(-75.1484167 4.2745 1250),GEOCOL2004,atmosphere,1,1
1272,1272,AREA OPERATIVA 10,IDEAM,21210220,PALMAR EL ,METEOROLOGICA,PLUVIOGRAFICA,weatherStation,ACTIVA,TOLIMA,IBAGUÉ,COMBEIMA,4.5801111,-75.3256667,2200,15/08/1971,,point,POINTZ(-75.3256667 4.5801111 2200),GEOCOL2004,atmosphere,1,1
1275,1275,AREA OPERATIVA 10,IDEAM,21210250,SAN VICENTE  ,METEOROLOGICA,PLUVIOGRAFICA,weatherStation,SUSPENDIDA,TOLIMA,IBAGUÉ,COMBEIMA,4.5401389,-75.3145278,1750,30/08/2005,04/06/2010 12:00:00 AM,point,POINTZ(-75.3145278 4.5401389 1750),GEOCOL2004,atmosphere,1,1
1276,1276,AREA OPERATIVA 10,IDEAM,21210260,SILENCIO EL  ,METEOROLOGICA,PLUVIOGRAFICA,weatherStation,ACTIVA,TOLIMA,IBAGUÉ,COMBEIMA,4.6333333,-75.3833333,2500,20/08/1999,,point,POINTZ(-75.3833333 4.6333333 2500),GEOCOL2004,atmosphere,1,1
1370,1370,AREA OPERATIVA 10,IDEAM,21250530,PALMA LA ,METEOROLOGICA,PLUVIOGRAFICA,weatherStation,SUSPENDIDA,TOLIMA,LÍBANO,RECIO,4.95,-75.0833333,1600,15/01/1977,15/08/1979,point,POINTZ(-75.0833333 4.95 1600),GEOCOL2004,atmosphere,1,1
1382,1382,AREA OPERATIVA 10,IDEAM,21250660,MURILLO AUTOMATICA ,METEOROLOGICA,PLUVIOGRAFICA,weatherStation,ACTIVA,TOLIMA,MURILLO,RECIO,4.8705556,-75.1732778,3023,21/10/2005,,point,POINTZ(-75.1732778 4.8705556 3023),GEOCOL2004,atmosphere,1,1
1404,1404,AREA OPERATIVA 10,IDEAM,22010060,AGUILA EL ,METEOROLOGICA,PLUVIOGRAFICA,weatherStation,SUSPENDIDA,TOLIMA,RIOBLANCO,SALDANA,3.3833333,-75.7666667,2120,15/10/1977,15/02/1999,point,POINTZ(-75.7666667 3.3833333 2120),GEOCOL2004,atmosphere,1,1
1406,1406,AREA OPERATIVA 10,IDEAM,22010090,MIRADOR FCA EL ,METEOROLOGICA,PLUVIOGRAFICA,weatherStation,SUSPENDIDA,TOLIMA,ATACO,SALDANA,3.4166667,-75.6833333,1070,15/12/1986,15/05/1999,point,POINTZ(-75.6833333 3.4166667 1070),GEOCOL2004,atmosphere,1,1
1429,1429,AREA OPERATIVA 10,IDEAM,22050040,ATACO    ,METEOROLOGICA,PLUVIOGRAFICA,weatherStation,ACTIVA,TOLIMA,ATACO,SALDANA,3.9280556,-75.3791667,468,15/10/1963,,point,POINTZ(-75.3791667 3.9280556 468),GEOCOL2004,atmosphere,1,1
1430,1430,AREA OPERATIVA 10,IDEAM,22050060,SAN JOSE D HERMOSA ,METEOROLOGICA,PLUVIOGRAFICA,weatherStation,ACTIVA,TOLIMA,CHAPARRAL,AMOYA,3.9035278,-75.6931667,2015,15/03/1973,,point,POINTZ(-75.6931667 3.9035278 2015),GEOCOL2004,atmosphere,1,1
1504,1504,AREA OPERATIVA 01,IDEAM,23050420,ARGELIA ANTIOQUIA   ,METEOROLOGICA,PLUVIOGRAFICA,weatherStation,ACTIVA,ANTIOQUIA,ARGELIA,SAMANA SUR,5.7311389,-75.1385278,1740,23/10/2007,,point,POINTZ(-75.1385278 5.7311389 1740),GEOCOL2004,atmosphere,1,1
1541,1541,AREA OPERATIVA 01,IDEAM,23070020,RIO CLARO ,METEOROLOGICA,PLUVIOGRAFICA,weatherStation,ACTIVA,ANTIOQUIA,SONSÓN,CLARO,5.8555278,-74.8483611,449,01/09/2009 12:00:00 AM,,point,POINTZ(-74.8483611 5.8555278 449),GEOCOL2004,atmosphere,1,1
1547,1547,AREA OPERATIVA 01,IDEAM,23080390,STO DOMINGO   ,METEOROLOGICA,PLUVIOGRAFICA,weatherStation,ACTIVA,ANTIOQUIA,SANTO DOMINGO,QDA SAN PEDRO,6.4683056,-75.1638056,2100,15/04/1986,,point,POINTZ(-75.1638056 6.4683056 2100),GEOCOL2004,atmosphere,1,1
1549,1549,AREA OPERATIVA 01,IDEAM,23080490,SAN CARLOS ,METEOROLOGICA,PLUVIOGRAFICA,weatherStation,SUSPENDIDA,ANTIOQUIA,SAN CARLOS,SAN CARLOS,6.2,-74.9833333,1060,15/02/1968,15/04/1992,point,POINTZ(-74.9833333 6.2 1060),GEOCOL2004,atmosphere,1,1
1550,1550,AREA OPERATIVA 01,IDEAM,23080630,TOPACIO EL ,METEOROLOGICA,PLUVIOGRAFICA,weatherStation,SUSPENDIDA,ANTIOQUIA,SAN RAFAEL,SAN LORENZO,6.3833333,-74.9833333,1340,15/05/1973,15/11/1991,point,POINTZ(-74.9833333 6.3833333 1340),GEOCOL2004,atmosphere,1,1
1553,1553,AREA OPERATIVA 01,IDEAM,23080660,MORRO EL ,METEOROLOGICA,PLUVIOGRAFICA,weatherStation,SUSPENDIDA,ANTIOQUIA,SANTO DOMINGO,QDA SAN PEDRO,6.4666667,-75.1333333,2210,15/05/1973,15/04/1986,point,POINTZ(-75.1333333 6.4666667 2210),GEOCOL2004,atmosphere,1,1
1556,1556,AREA OPERATIVA 01,IDEAM,23080730,TEJAR EL ,METEOROLOGICA,PLUVIOGRAFICA,weatherStation,SUSPENDIDA,ANTIOQUIA,SAN RAFAEL,GUATAPE,6.3,-75.0333333,1020,15/05/1973,15/05/1994,point,POINTZ(-75.0333333 6.3 1020),GEOCOL2004,atmosphere,1,1
1561,1561,AREA OPERATIVA 01,IDEAM,23080800,PATIO BONITO ,METEOROLOGICA,PLUVIOGRAFICA,weatherStation,SUSPENDIDA,ANTIOQUIA,SAN CARLOS,SAN CARLOS,6.1833333,-74.9,975,15/11/1982,15/11/2000,point,POINTZ(-74.9 6.1833333 975),GEOCOL2004,atmosphere,1,1
1562,1562,AREA OPERATIVA 01,IDEAM,23080810,JORDAN EL   ,METEOROLOGICA,PLUVIOGRAFICA,weatherStation,ACTIVA,ANTIOQUIA,SAN CARLOS,SAN CARLOS,6.2495,-74.8281111,1950,15/11/1982,,point,POINTZ(-74.8281111 6.2495 1950),GEOCOL2004,atmosphere,1,1
1564,1564,AREA OPERATIVA 01,IDEAM,23080910,MEDIOS LOS ,METEOROLOGICA,PLUVIOGRAFICA,weatherStation,SUSPENDIDA,ANTIOQUIA,GRANADA,CALDERAS,6.1333333,-75.0833333,1630,15/06/1991,15/03/1999,point,POINTZ(-75.0833333 6.1333333 1630),GEOCOL2004,atmosphere,1,1
1565,1565,AREA OPERATIVA 01,IDEAM,23080920,SANTUARIO    ,METEOROLOGICA,PLUVIOGRAFICA,weatherStation,ACTIVA,ANTIOQUIA,SANTUARIO,RIONEGRO,6.1330556,-75.2735833,1250,15/05/1992,,point,POINTZ(-75.2735833 6.1330556 1250),GEOCOL2004,atmosphere,1,1
1566,1566,AREA OPERATIVA 01,IDEAM,23080930,POPO EL ,METEOROLOGICA,PLUVIOGRAFICA,weatherStation,SUSPENDIDA,ANTIOQUIA,SAN CARLOS,SAN CARLOS,6.2,-74.9833333,1010,15/05/1992,15/08/2002,point,POINTZ(-74.9833333 6.2 1010),GEOCOL2004,atmosphere,1,1
1567,1567,AREA OPERATIVA 01,IDEAM,23080940,PRESA SAN LORENZO  ,METEOROLOGICA,PLUVIOGRAFICA,weatherStation,ACTIVA,ANTIOQUIA,ALEJANDRÍA,SAN LORENZO,6.3845833,-74.9967778,1700,15/07/1992,,point,POINTZ(-74.9967778 6.3845833 1700),GEOCOL2004,atmosphere,1,1
1568,1568,AREA OPERATIVA 01,IDEAM,23080950,VIENTO EL ,METEOROLOGICA,PLUVIOGRAFICA,weatherStation,SUSPENDIDA,ANTIOQUIA,ALEJANDRÍA,NARE,6.4,-75.1,890,15/08/1992,15/11/2004,point,POINTZ(-75.1 6.4 890),GEOCOL2004,atmosphere,1,1
1602,1602,AREA OPERATIVA 08,IDEAM,23090100,SAN JUAN BEDUTH ,METEOROLOGICA,PLUVIOGRAFICA,weatherStation,SUSPENDIDA,ANTIOQUIA,PUERTO BERRÍO,PESCADO,6.6,-74.45,150,15/08/1984,15/03/2002,point,POINTZ(-74.45 6.6 150),GEOCOL2004,atmosphere,1,1
1611,1611,AREA OPERATIVA 08,IDEAM,23100060,BARCELONA HDA ,METEOROLOGICA,PLUVIOGRAFICA,weatherStation,SUSPENDIDA,ANTIOQUIA,PUERTO BERRÍO,SAN BARTOLOME,6.7,-74.4,140,15/09/1984,15/08/1990,point,POINTZ(-74.4 6.7 140),GEOCOL2004,atmosphere,1,1
1613,1613,AREA OPERATIVA 08,IDEAM,23100080,STA CLARA ,METEOROLOGICA,PLUVIOGRAFICA,weatherStation,SUSPENDIDA,ANTIOQUIA,YONDÓ (Casabe),SAN BARTOLOME,6.65,-74.3166667,100,15/09/1984,15/03/2002,point,POINTZ(-74.3166667 6.65 100),GEOCOL2004,atmosphere,1,1
1757,1757,AREA OPERATIVA 08,IDEAM,23190430,PIEDECUESTA ,METEOROLOGICA,PLUVIOGRAFICA,weatherStation,SUSPENDIDA,SANTANDER,PIEDECUESTA,LATO,6.9833333,-73.05,1000,15/01/1969,15/09/1971,point,POINTZ(-73.05 6.9833333 1000),GEOCOL2004,atmosphere,1,1
1772,1772,AREA OPERATIVA 08,IDEAM,23190590,FLORESTA LA ,METEOROLOGICA,PLUVIOGRAFICA,weatherStation,ACTIVA,SANTANDER,BUCARAMANGA,QDA DE LA IGLESIA,7.0902778,-73.1238889,925,15/06/1978,,point,POINTZ(-73.1238889 7.0902778 925),GEOCOL2004,atmosphere,1,1
1775,1775,AREA OPERATIVA 08,IDEAM,23190700,PIEDECUESTA GJA ,METEOROLOGICA,PLUVIOGRAFICA,weatherStation,ACTIVA,SANTANDER,PIEDECUESTA,LATO,6.9933333,-73.0677778,1000,15/07/1970,,point,POINTZ(-73.0677778 6.9933333 1000),GEOCOL2004,atmosphere,1,1
1779,1779,AREA OPERATIVA 08,IDEAM,23190830,BUCARAMANGA IDEAM ,METEOROLOGICA,PLUVIOGRAFICA,weatherStation,ACTIVA,SANTANDER,BUCARAMANGA,SURATA,7.1283333,-73.1183333,1025,15/10/1996,,point,POINTZ(-73.1183333 7.1283333 1025),GEOCOL2004,atmosphere,1,1
1861,1861,AREA OPERATIVA 08,IDEAM,23210180,GUAYABALES ,METEOROLOGICA,PLUVIOGRAFICA,weatherStation,SUSPENDIDA,NORTE DE SANTANDER,EL CARMEN,QDA EL CARMEN,8.7166667,-73.4666667,1500,15/10/1973,15/02/1985,point,POINTZ(-73.4666667 8.7166667 1500),GEOCOL2004,atmosphere,1,1
1877,1877,AREA OPERATIVA 11,IDEAM,24010150,SIMIJACA ,METEOROLOGICA,PLUVIOGRAFICA,weatherStation,ACTIVA,CUNDINAMARCA,SIMIJACA,SIMIJACA,5.5113056,-73.8636944,2590,15/01/1958,,point,POINTZ(-73.8636944 5.5113056 2590),GEOCOL2004,atmosphere,1,1
1894,1894,AREA OPERATIVA 06,IDEAM,24010690,TRES ESQUINAS ,METEOROLOGICA,PLUVIOGRAFICA,weatherStation,SUSPENDIDA,BOYACÁ,SANTA SOFÍA,SUAREZ,5.7166667,-73.6333333,2600,15/04/1986,15/02/2002,point,POINTZ(-73.6333333 5.7166667 2600),GEOCOL2004,atmosphere,1,1
1907,1907,AREA OPERATIVA 06,IDEAM,24010830,SAN PEDRO IGUAQUE ,METEOROLOGICA,PLUVIOGRAFICA,weatherStation,ACTIVA,BOYACÁ,CHÍQUIZA,CHULO,5.64,-73.4504444,2985,15/08/1980,,point,POINTZ(-73.4504444 5.64 2985),GEOCOL2004,atmosphere,1,1
1916,1916,AREA OPERATIVA 11,IDEAM,24011090,UBATE GJA ,METEOROLOGICA,PLUVIOGRAFICA,weatherStation,SUSPENDIDA,CUNDINAMARCA,UBATÉ,UBATE,5.3273333,-73.7914444,2555,15/05/1987,31/03/2010,point,POINTZ(-73.7914444 5.3273333 2555),GEOCOL2004,atmosphere,1,1
1917,1917,AREA OPERATIVA 11,IDEAM,24011100,ISLA DEL SANTUARIO ,METEOROLOGICA,PLUVIOGRAFICA,weatherStation,ACTIVA,CUNDINAMARCA,FÚQUENE,LAG DE FUQUENE,5.4672778,-73.7348056,2580,15/04/1960,,point,POINTZ(-73.7348056 5.4672778 2580),GEOCOL2004,atmosphere,1,1
1922,1922,AREA OPERATIVA 11,IDEAM,24011150,ALIZOS LOS ,METEOROLOGICA,PLUVIOGRAFICA,weatherStation,ACTIVA,CUNDINAMARCA,CARMEN DE CARUPA,UBATE,5.3293889,-73.8500556,3167,31/03/2010,,point,POINTZ(-73.8500556 5.3293889 3167),GEOCOL2004,atmosphere,1,1
1969,1969,AREA OPERATIVA 08,IDEAM,24020040,ENCINO ,METEOROLOGICA,PLUVIOGRAFICA,weatherStation,ACTIVA,SANTANDER,ENCINO,PIENTA,6.1383333,-73.0980556,1814,15/11/1954,,point,POINTZ(-73.0980556 6.1383333 1814),GEOCOL2004,atmosphere,1,1
1978,1978,AREA OPERATIVA 08,IDEAM,24020210,CHARALA ,METEOROLOGICA,PLUVIOGRAFICA,weatherStation,SUSPENDIDA,SANTANDER,CHARALÁ,PIENTA,6.2741667,-73.1505556,1350,15/02/1968,15/09/1971,point,POINTZ(-73.1505556 6.2741667 1350),GEOCOL2004,atmosphere,1,1
1998,1998,AREA OPERATIVA 06,IDEAM,24030120,PESCA    ,METEOROLOGICA,PLUVIOGRAFICA,weatherStation,ACTIVA,BOYACÁ,PESCA,PESCA,5.5230331,-73.0768478,2678,15/02/1957,,point,POINTZ(-73.0768478 5.5230331 2678),GEOCOL2004,atmosphere,1,1
2020,2020,AREA OPERATIVA 06,IDEAM,24030350,DUITAMA    ,METEOROLOGICA,PLUVIOGRAFICA,weatherStation,ACTIVA,BOYACÁ,DUITAMA,CHITICUY,5.8300833,-73.0446111,2540,15/01/1959,,point,POINTZ(-73.0446111 5.8300833 2540),GEOCOL2004,atmosphere,1,1
2022,2022,AREA OPERATIVA 06,IDEAM,24030370,SUSA ,METEOROLOGICA,PLUVIOGRAFICA,weatherStation,ACTIVA,SANTANDER,ONZAGA,SUSA,6.1885,-72.8348333,3080,15/11/1959,,point,POINTZ(-72.8348333 6.1885 3080),GEOCOL2004,atmosphere,1,1
2027,2027,AREA OPERATIVA 06,IDEAM,24030440,PESCA ,METEOROLOGICA,PLUVIOGRAFICA,weatherStation,SUSPENDIDA,BOYACÁ,PESCA,PESCA,5.5666667,-73.05,2650,15/10/1964,15/10/1977,point,POINTZ(-73.05 5.5666667 2650),GEOCOL2004,atmosphere,1,1
2044,2044,AREA OPERATIVA 08,IDEAM,24030680,PARAMO EL   ,METEOROLOGICA,PLUVIOGRAFICA,weatherStation,ACTIVA,SANTANDER,CARCASÍ,TUNEBO,6.6533333,-72.5908333,2394,15/06/1974,,point,POINTZ(-72.5908333 6.6533333 2394),GEOCOL2004,atmosphere,1,1
2055,2055,AREA OPERATIVA 06,IDEAM,24030820,AZULEJOS LOS   ,METEOROLOGICA,PLUVIOGRAFICA,weatherStation,ACTIVA,BOYACÁ,TUTA,TUTA,5.6637222,-73.2101111,2780,15/06/1976,,point,POINTZ(-73.2101111 5.6637222 2780),GEOCOL2004,atmosphere,1,1
2060,2060,AREA OPERATIVA 06,IDEAM,24030870,PINOS LOS ,METEOROLOGICA,PLUVIOGRAFICA,weatherStation,SUSPENDIDA,BOYACÁ,DUITAMA,SURBA,5.8166667,-73.0666667,2535,15/05/1978,15/11/1981,point,POINTZ(-73.0666667 5.8166667 2535),GEOCOL2004,atmosphere,1,1
2061,2061,AREA OPERATIVA 06,IDEAM,24030880,AMARILLA LA ,METEOROLOGICA,PLUVIOGRAFICA,weatherStation,SUSPENDIDA,BOYACÁ,DUITAMA,SURBA,5.8,-73.0666667,2535,15/07/1978,15/12/1981,point,POINTZ(-73.0666667 5.8 2535),GEOCOL2004,atmosphere,1,1
2062,2062,AREA OPERATIVA 06,IDEAM,24030940,SENA ,METEOROLOGICA,PLUVIOGRAFICA,weatherStation,ACTIVA,BOYACÁ,SOGAMOSO,CHICAMOCHA,5.7560556,-72.9078889,2500,15/04/1981,,point,POINTZ(-72.9078889 5.7560556 2500),GEOCOL2004,atmosphere,1,1
2063,2063,AREA OPERATIVA 08,IDEAM,24030950,MALAGA 2 ,METEOROLOGICA,PLUVIOGRAFICA,weatherStation,ACTIVA,SANTANDER,MÁLAGA,SERVITA,6.7063889,-72.7297222,2237,15/12/1973,,point,POINTZ(-72.7297222 6.7063889 2237),GEOCOL2004,atmosphere,1,1
2164,2164,AREA OPERATIVA 08,IDEAM,24060010,PARROQUIA LA ,METEOROLOGICA,PLUVIOGRAFICA,weatherStation,SUSPENDIDA,SANTANDER,GIRÓN,QDA AGUABLANCA,7.0763889,-73.3277778,267,15/09/1959,15/06/1965,point,POINTZ(-73.3277778 7.0763889 267),GEOCOL2004,atmosphere,1,1
2168,2168,AREA OPERATIVA 08,IDEAM,24060070,PARROQUIA LA ,METEOROLOGICA,PLUVIOGRAFICA,weatherStation,SUSPENDIDA,SANTANDER,GIRÓN,QDA AGUABLANCA,7.0763889,-73.3277778,267,15/09/1959,04/10/2013 12:00:00 AM,point,POINTZ(-73.3277778 7.0763889 267),GEOCOL2004,atmosphere,1,1
2170,2170,AREA OPERATIVA 08,IDEAM,24060090,PTE LA PAZ AUTOMATICA ,METEOROLOGICA,PLUVIOGRAFICA,weatherStation,SUSPENDIDA,SANTANDER,BETULIA,SOGAMOSO,7.1086111,-73.4194444,180,09/05/2004 12:00:00 AM,29/09/2010,point,POINTZ(-73.4194444 7.1086111 180),GEOCOL2004,atmosphere,1,1
2222,2222,AREA OPERATIVA 02,IDEAM,25020480,PAJAROS  LOS ,METEOROLOGICA,PLUVIOGRAFICA,weatherStation,ACTIVA,CÓRDOBA,AYAPEL,CGA. DE AYAPEL,8.3405556,-74.8677778,25,15/10/1968,,point,POINTZ(-74.8677778 8.3405556 25),GEOCOL2004,atmosphere,1,1
2544,2544,AREA OPERATIVA 09,IDEAM,26040040,MIRANDA 1 ,METEOROLOGICA,PLUVIOGRAFICA,weatherStation,SUSPENDIDA,CAUCA,MIRANDA,PALO,3.2666667,-76.2666667,1060,15/05/1946,15/07/1971,point,POINTZ(-76.2666667 3.2666667 1060),GEOCOL2004,atmosphere,1,1
2545,2545,AREA OPERATIVA 09,IDEAM,26040050,RIO PALO ,METEOROLOGICA,PLUVIOGRAFICA,weatherStation,SUSPENDIDA,CAUCA,CALOTO,PALO,3.0706111,-76.3778333,19,15/07/1964,15/09/1971,point,POINTZ(-76.3778333 3.0706111 19),GEOCOL2004,atmosphere,1,1
2552,2552,AREA OPERATIVA 09,IDEAM,26040320,TACUEYO ,METEOROLOGICA,PLUVIOGRAFICA,weatherStation,SUSPENDIDA,CAUCA,TORIBÍO,JAMBALO,3.05,-76.2333333,1780,15/01/1966,15/07/1971,point,POINTZ(-76.2333333 3.05 1780),GEOCOL2004,atmosphere,1,1
2596,2596,AREA OPERATIVA 09,IDEAM,26080310,CALI SEDE IDEAM  ,METEOROLOGICA,PLUVIOGRAFICA,weatherStation,ACTIVA,VALLE DEL CAUCA,CALI,CALI,3.4759722,-76.5230278,983,15/10/1996,,point,POINTZ(-76.5230278 3.4759722 983),GEOCOL2004,atmosphere,1,1
2643,2643,AREA OPERATIVA 09,IDEAM,26110110,CAYETANA LA ,METEOROLOGICA,PLUVIOGRAFICA,weatherStation,SUSPENDIDA,VALLE DEL CAUCA,LA UNIÓN,CAUCA,4.5833333,-76.05,912,15/06/1964,15/03/2002,point,POINTZ(-76.05 4.5833333 912),GEOCOL2004,atmosphere,1,1
2648,2648,AREA OPERATIVA 09,IDEAM,26110230,ISUGU    ,METEOROLOGICA,PLUVIOGRAFICA,weatherStation,ACTIVA,VALLE DEL CAUCA,ROLDANILLO,CAUCA,4.4186667,-76.1005278,933,15/06/1971,,point,POINTZ(-76.1005278 4.4186667 933),GEOCOL2004,atmosphere,1,1
2836,2836,AREA OPERATIVA 01,IDEAM,26180180,SONSON    ,METEOROLOGICA,PLUVIOGRAFICA,weatherStation,ACTIVA,ANTIOQUIA,SONSÓN,SONSON,5.71525,-75.2945,2180,15/06/1970,,point,POINTZ(-75.2945 5.71525 2180),GEOCOL2004,atmosphere,1,1
2839,2839,AREA OPERATIVA 09,IDEAM,26180230,AGUADAS ,METEOROLOGICA,PLUVIOGRAFICA,weatherStation,SUSPENDIDA,CALDAS,AGUADAS,ARMA,5.6000278,-75.4511944,2400,15/11/1951,15/04/1960,point,POINTZ(-75.4511944 5.6000278 2400),GEOCOL2004,atmosphere,1,1
2840,2840,AREA OPERATIVA 01,IDEAM,26180240,PAVAS LAS   ,METEOROLOGICA,PLUVIOGRAFICA,weatherStation,ACTIVA,CALDAS,AGUADAS,ARMA,5.5221944,-75.3928889,3210,15/04/1994,,point,POINTZ(-75.3928889 5.5221944 3210),GEOCOL2004,atmosphere,1,1
2841,2841,AREA OPERATIVA 01,IDEAM,26180250,VALLE ALTO   ,METEOROLOGICA,PLUVIOGRAFICA,weatherStation,ACTIVA,CALDAS,SALAMINA,ARMA,5.35,-75.3177778,2800,15/04/1994,,point,POINTZ(-75.3177778 5.35 2800),GEOCOL2004,atmosphere,1,1
2843,2843,AREA OPERATIVA 01,IDEAM,26180270,PINTADA LA AUTOMATICA ,METEOROLOGICA,PLUVIOGRAFICA,weatherStation,SUSPENDIDA,ANTIOQUIA,LA PINTADA,CAUCA,5.7307222,-75.6081111,1870,15/02/2009,18/08/2011,point,POINTZ(-75.6081111 5.7307222 1870),GEOCOL2004,atmosphere,1,1
2891,2891,AREA OPERATIVA 01,IDEAM,26220050,CUMBRE LA ,METEOROLOGICA,PLUVIOGRAFICA,weatherStation,SUSPENDIDA,ANTIOQUIA,PEQUE,QDA LAS CUATRO,7.0333333,-75.9333333,2440,15/11/1970,15/11/2004,point,POINTZ(-75.9333333 7.0333333 2440),GEOCOL2004,atmosphere,1,1
2895,2895,AREA OPERATIVA 01,IDEAM,26220110,STA RITA   ,METEOROLOGICA,PLUVIOGRAFICA,weatherStation,ACTIVA,ANTIOQUIA,ITUANGO,SINITAVE,7.32375,-75.6168611,530,15/09/1982,,point,POINTZ(-75.6168611 7.32375 530),GEOCOL2004,atmosphere,1,1
2908,2908,AREA OPERATIVA 01,IDEAM,26230160,BRICENO ,METEOROLOGICA,PLUVIOGRAFICA,weatherStation,ACTIVA,ANTIOQUIA,BRICEÑO,QDA EL ORO,7.1052778,-75.5116667,1440,15/10/1970,,point,POINTZ(-75.5116667 7.1052778 1440),GEOCOL2004,atmosphere,1,1
2911,2911,AREA OPERATIVA 01,IDEAM,26230200,SABANALARGA ,METEOROLOGICA,PLUVIOGRAFICA,weatherStation,ACTIVA,ANTIOQUIA,SABANALARGA,CAUCA,6.846,-75.8148056,1000,15/03/1975,,point,POINTZ(-75.8148056 6.846 1000),GEOCOL2004,atmosphere,1,1
2914,2914,AREA OPERATIVA 01,IDEAM,26230260,PTO VALDIVIA AUTOM ,METEOROLOGICA,PLUVIOGRAFICA,weatherStation,SUSPENDIDA,ANTIOQUIA,VALDIVIA,CAUCA,7.2870833,-75.3963056,129,11/04/2008 12:00:00 AM,06/05/2009 12:00:00 AM,point,POINTZ(-75.3963056 7.2870833 129),GEOCOL2004,atmosphere,1,1
2932,2932,AREA OPERATIVA 01,IDEAM,26240120,PTO VALDIVIA ,METEOROLOGICA,PLUVIOGRAFICA,weatherStation,SUSPENDIDA,ANTIOQUIA,VALDIVIA,CAUCA,7.3,-75.4333333,125,15/03/1975,15/07/1985,point,POINTZ(-75.4333333 7.3 125),GEOCOL2004,atmosphere,1,1
2949,2949,AREA OPERATIVA 01,IDEAM,26250100,STA CRUZ HDA ,METEOROLOGICA,PLUVIOGRAFICA,weatherStation,SUSPENDIDA,ANTIOQUIA,CÁCERES,QDA CORRALES,7.5,-75.25,125,15/07/1983,15/02/1984,point,POINTZ(-75.25 7.5 125),GEOCOL2004,atmosphere,1,1
2974,2974,AREA OPERATIVA 01,IDEAM,27011120,IGUANA LA ,METEOROLOGICA,PLUVIOGRAFICA,weatherStation,ACTIVA,ANTIOQUIA,MEDELLÍN,QDA LA IGUANA,6.3162778,-75.6575278,2300,15/10/1990,,point,POINTZ(-75.6575278 6.3162778 2300),GEOCOL2004,atmosphere,1,1
3001,3001,AREA OPERATIVA 01,IDEAM,27020200,CEDENO ,METEOROLOGICA,PLUVIOGRAFICA,weatherStation,ACTIVA,ANTIOQUIA,YARUMAL,SAN JULIAN,7.0707222,-75.3555833,2400,15/11/1970,,point,POINTZ(-75.3555833 7.0707222 2400),GEOCOL2004,atmosphere,1,1
3027,3027,AREA OPERATIVA 01,IDEAM,27030240,PTE BAGRE ,METEOROLOGICA,PLUVIOGRAFICA,weatherStation,SUSPENDIDA,ANTIOQUIA,REMEDIOS,BAGRE,7.1166667,-74.6,240,15/04/1981,15/08/1999,point,POINTZ(-74.6 7.1166667 240),GEOCOL2004,atmosphere,1,1
3057,3057,AREA OPERATIVA 05,IDEAM,28010420,ARIGUANI HDA AUTOMATICA ,METEOROLOGICA,PLUVIOGRAFICA,weatherStation,SUSPENDIDA,CESAR,VALLEDUPAR,GUATAPURI,10.5741944,-73.397,550,16/08/2005,29/09/2010,point,POINTZ(-73.397 10.5741944 550),GEOCOL2004,atmosphere,1,1
3151,3151,AREA OPERATIVA 05,IDEAM,28040170,CUEVAS LAS ,METEOROLOGICA,PLUVIOGRAFICA,weatherStation,SUSPENDIDA,CESAR,PUEBLO BELLO,ARIGUANI,10.4666667,-73.5666667,1260,15/06/1963,15/02/1996,point,POINTZ(-73.5666667 10.4666667 1260),GEOCOL2004,atmosphere,1,1
3191,3191,AREA OPERATIVA 02,IDEAM,29030040,ARJONA ,METEOROLOGICA,PLUVIOGRAFICA,weatherStation,ACTIVA,BOLÍVAR,ARJONA,AY EL CAIMAN,10.2502778,-75.3544444,60,15/09/1958,,point,POINTZ(-75.3544444 10.2502778 60),GEOCOL2004,atmosphere,1,1
3198,3198,AREA OPERATIVA 02,IDEAM,29030120,HAYA LA ,METEOROLOGICA,PLUVIOGRAFICA,weatherStation,SUSPENDIDA,BOLÍVAR,SAN JUAN NEPOMUCENO,AY HAYA,9.9666667,-75.1833333,100,15/11/1963,15/12/1970,point,POINTZ(-75.1833333 9.9666667 100),GEOCOL2004,atmosphere,1,1
3199,3199,AREA OPERATIVA 02,IDEAM,29030130,FLAMENCO ,METEOROLOGICA,PLUVIOGRAFICA,weatherStation,SUSPENDIDA,BOLÍVAR,MARÍA LA BAJA,AY GRANDE FLAMEN,9.9691667,-75.4002778,12,15/12/1963,15/12/1965,point,POINTZ(-75.4002778 9.9691667 12),GEOCOL2004,atmosphere,1,1
3201,3201,AREA OPERATIVA 02,IDEAM,29030150,SAN CRISTOBAL ,METEOROLOGICA,PLUVIOGRAFICA,weatherStation,ACTIVA,BOLÍVAR,SAN JACINTO,AY MATUYA,9.8680556,-75.2502778,70,15/11/1963,,point,POINTZ(-75.2502778 9.8680556 70),GEOCOL2004,atmosphere,1,1
3220,3220,AREA OPERATIVA 02,IDEAM,29030420,CATIVA ,METEOROLOGICA,PLUVIOGRAFICA,weatherStation,SUSPENDIDA,BOLÍVAR,MAHATES,AY HONDO CATIVA,10.05,-75.2166667,50,15/09/1979,15/02/2002,point,POINTZ(-75.2166667 10.05 50),GEOCOL2004,atmosphere,1,1
3229,3229,AREA OPERATIVA 02,IDEAM,29030510,ESPERANZA FCA LA ,METEOROLOGICA,PLUVIOGRAFICA,weatherStation,ACTIVA,BOLÍVAR,EL CARMEN DE BOLÍVAR,AY GUAMANGA,9.8708333,-75.2855556,60,15/01/1978,,point,POINTZ(-75.2855556 9.8708333 60),GEOCOL2004,atmosphere,1,1
3232,3232,AREA OPERATIVA 02,IDEAM,29030570,HAYA LA ,METEOROLOGICA,PLUVIOGRAFICA,weatherStation,ACTIVA,BOLÍVAR,SAN JUAN NEPOMUCENO,AY HAYA,9.9583333,-75.1861111,100,15/01/1964,,point,POINTZ(-75.1861111 9.9583333 100),GEOCOL2004,atmosphere,1,1
3233,3233,AREA OPERATIVA 02,IDEAM,29030600,GAMBOTE ,METEOROLOGICA,PLUVIOGRAFICA,weatherStation,SUSPENDIDA,BOLÍVAR,ARJONA,CANAL DEL DIQUE,10.1622222,-75.2986111,4,15/03/1964,15/07/1971,point,POINTZ(-75.2986111 10.1622222 4),GEOCOL2004,atmosphere,1,1
3318,3318,AREA OPERATIVA 02,IDEAM,29040240,USIACURI    ,METEOROLOGICA,PLUVIOGRAFICA,weatherStation,ACTIVA,ATLÁNTICO,USIACURÍ,MAGDALENA,10.7447222,-74.9805556,100,15/02/1964,,point,POINTZ(-74.9805556 10.7447222 100),GEOCOL2004,atmosphere,1,1
3327,3327,AREA OPERATIVA 02,IDEAM,29040410,USIACURI ,METEOROLOGICA,PLUVIOGRAFICA,weatherStation,SUSPENDIDA,ATLÁNTICO,USIACURÍ,MAGDALENA,10.7447222,-74.9805556,100,15/11/1963,15/07/1971,point,POINTZ(-74.9805556 10.7447222 100),GEOCOL2004,atmosphere,1,1
3556,3556,AREA OPERATIVA 03,IDEAM,35020020,SUSUMUCO ,METEOROLOGICA,PLUVIOGRAFICA,weatherStation,ACTIVA,CUNDINAMARCA,GUAYABETAL,NEGRO,4.1961667,-73.7719167,1000,15/05/1961,,point,POINTZ(-73.7719167 4.1961667 1000),GEOCOL2004,atmosphere,1,1
3565,3565,AREA OPERATIVA 11,IDEAM,35020310,NAZARETH ,METEOROLOGICA,PLUVIOGRAFICA,weatherStation,ACTIVA,BOGOTA D.C.,BOGOTA D.C.,BLANCO,4.17225,-74.146,2800,15/07/1984,,point,POINTZ(-74.146 4.17225 2800),GEOCOL2004,atmosphere,1,1
3596,3596,AREA OPERATIVA 03,IDEAM,35030010,CALVARIO EL ,METEOROLOGICA,PLUVIOGRAFICA,weatherStation,ACTIVA,META,EL CALVARIO,CHINGAZA,4.3520556,-73.7115833,1800,15/10/1968,,point,POINTZ(-73.7115833 4.3520556 1800),GEOCOL2004,atmosphere,1,1
3598,3598,AREA OPERATIVA 03,IDEAM,35030030,SENA ,METEOROLOGICA,PLUVIOGRAFICA,weatherStation,ACTIVA,META,VILLAVICENCIO,GUATIQUIA,4.1273611,-73.6395556,425,15/08/1984,,point,POINTZ(-73.6395556 4.1273611 425),GEOCOL2004,atmosphere,1,1
3599,3599,AREA OPERATIVA 03,IDEAM,35030040,ACDTO LA ESMERALDA ,METEOROLOGICA,PLUVIOGRAFICA,weatherStation,ACTIVA,META,VILLAVICENCIO,GUATIQUIA,4.1636389,-73.6477222,550,15/02/1986,,point,POINTZ(-73.6477222 4.1636389 550),GEOCOL2004,atmosphere,1,1
3603,3603,AREA OPERATIVA 11,IDEAM,35030080,CASAS LAS ,METEOROLOGICA,PLUVIOGRAFICA,weatherStation,ACTIVA,CUNDINAMARCA,CÁQUEZA,CAQUEZA,4.4411667,-73.9363889,2100,15/05/1986,,point,POINTZ(-73.9363889 4.4411667 2100),GEOCOL2004,atmosphere,1,1
3604,3604,AREA OPERATIVA 03,IDEAM,35030090,BUENAVISTA ,METEOROLOGICA,PLUVIOGRAFICA,weatherStation,ACTIVA,META,RESTREPO,UPIN,4.2747778,-73.6178333,1280,15/03/1993,,point,POINTZ(-73.6178333 4.2747778 1280),GEOCOL2004,atmosphere,1,1
3605,3605,AREA OPERATIVA 03,IDEAM,35030100,ALCALDIA ,METEOROLOGICA,PLUVIOGRAFICA,weatherStation,ACTIVA,META,VILLAVICENCIO,GUATIQUIA,4.15,-73.6333333,470,15/08/1993,,point,POINTZ(-73.6333333 4.15 470),GEOCOL2004,atmosphere,1,1
3606,3606,AREA OPERATIVA 03,IDEAM,35030290,SERVITA ,METEOROLOGICA,PLUVIOGRAFICA,weatherStation,ACTIVA,META,VILLAVICENCIO,GUATIQUIA,4.1888056,-73.6931111,1091,15/04/1995,,point,POINTZ(-73.6931111 4.1888056 1091),GEOCOL2004,atmosphere,1,1
3639,3639,AREA OPERATIVA 11,IDEAM,35060100,ESC TENA ,METEOROLOGICA,PLUVIOGRAFICA,weatherStation,ACTIVA,CUNDINAMARCA,GACHALÁ,GACHETA,4.7126944,-73.5206944,1650,15/08/1972,,point,POINTZ(-73.5206944 4.7126944 1650),GEOCOL2004,atmosphere,1,1
3669,3669,AREA OPERATIVA 06,IDEAM,35070010,RAMIRIQUI    ,METEOROLOGICA,PLUVIOGRAFICA,weatherStation,ACTIVA,BOYACÁ,RAMIRIQUÍ,JENESANO,5.3995278,-73.3329722,2360,15/06/1957,,point,POINTZ(-73.3329722 5.3995278 2360),GEOCOL2004,atmosphere,1,1
3676,3676,AREA OPERATIVA 06,IDEAM,35070080,GARAGOA ,METEOROLOGICA,PLUVIOGRAFICA,weatherStation,ACTIVA,BOYACÁ,GARAGOA,GARAGOA,5.0788611,-73.3685278,1700,15/10/1959,,point,POINTZ(-73.3685278 5.0788611 1700),GEOCOL2004,atmosphere,1,1
3679,3679,AREA OPERATIVA 06,IDEAM,35070110,GUAYATA LA GRANJA  ,METEOROLOGICA,PLUVIOGRAFICA,weatherStation,ACTIVA,BOYACÁ,GUAYATÁ,SOMONDOCO,4.9760833,-73.4993056,1580,15/07/1971,,point,POINTZ(-73.4993056 4.9760833 1580),GEOCOL2004,atmosphere,1,1
3682,3682,AREA OPERATIVA 06,IDEAM,35070140,ALMEIDA ,METEOROLOGICA,PLUVIOGRAFICA,weatherStation,SUSPENDIDA,BOYACÁ,ALMEIDA,BATA,4.9666667,-73.3833333,1910,15/03/1962,15/07/1971,point,POINTZ(-73.3833333 4.9666667 1910),GEOCOL2004,atmosphere,1,1
3685,3685,AREA OPERATIVA 06,IDEAM,35070180,STA MARIA ,METEOROLOGICA,PLUVIOGRAFICA,weatherStation,ACTIVA,BOYACÁ,SANTA MARÍA,BATA,4.8607778,-73.25675,850,15/01/1957,,point,POINTZ(-73.25675 4.8607778 850),GEOCOL2004,atmosphere,1,1
3686,3686,AREA OPERATIVA 06,IDEAM,35070190,CHIVOR    ,METEOROLOGICA,PLUVIOGRAFICA,weatherStation,ACTIVA,BOYACÁ,CHIVOR,CHIVOR,4.8863611,-73.3667361,1850,15/02/1962,,point,POINTZ(-73.3667361 4.8863611 1850),GEOCOL2004,atmosphere,1,1
3689,3689,AREA OPERATIVA 06,IDEAM,35070220,JENESANO ,METEOROLOGICA,PLUVIOGRAFICA,weatherStation,SUSPENDIDA,BOYACÁ,JENESANO,JENESANO,5.4166667,-73.3666667,2110,15/12/1979,15/02/2002,point,POINTZ(-73.3666667 5.4166667 2110),GEOCOL2004,atmosphere,1,1
3690,3690,AREA OPERATIVA 11,IDEAM,35070230,MACHETA GJA AGROP ,METEOROLOGICA,PLUVIOGRAFICA,weatherStation,ACTIVA,CUNDINAMARCA,MACHETÁ,MACHETA,5.0751111,-73.5794167,1815,15/12/1979,,point,POINTZ(-73.5794167 5.0751111 1815),GEOCOL2004,atmosphere,1,1
3692,3692,AREA OPERATIVA 06,IDEAM,35070260,ALMEIDA ,METEOROLOGICA,PLUVIOGRAFICA,weatherStation,ACTIVA,BOYACÁ,ALMEIDA,BATA,4.9708333,-73.3798611,1954,15/01/1959,,point,POINTZ(-73.3798611 4.9708333 1954),GEOCOL2004,atmosphere,1,1
3693,3693,AREA OPERATIVA 06,IDEAM,35070280,TENZA ,METEOROLOGICA,PLUVIOGRAFICA,weatherStation,SUSPENDIDA,BOYACÁ,TENZA,GARAGOA,5.0833333,-73.4166667,1507,15/03/1962,15/10/1971,point,POINTZ(-73.4166667 5.0833333 1507),GEOCOL2004,atmosphere,1,1
3696,3696,AREA OPERATIVA 06,IDEAM,35070310,TEATINOS    ,METEOROLOGICA,PLUVIOGRAFICA,weatherStation,ACTIVA,BOYACÁ,SAMACÁ,TEATINOS,5.4228222,-73.3757778,3250,15/04/1990,,point,POINTZ(-73.3757778 5.4228222 3250),GEOCOL2004,atmosphere,1,1
3706,3706,AREA OPERATIVA 06,IDEAM,35070500,CAMPO REAL ,METEOROLOGICA,PLUVIOGRAFICA,weatherStation,SUSPENDIDA,BOYACÁ,ALMEIDA,BATA,4.9957778,-73.3815278,1430,15/07/1982,28/08/2014,point,POINTZ(-73.3815278 4.9957778 1430),GEOCOL2004,atmosphere,1,1
3707,3707,AREA OPERATIVA 06,IDEAM,35070510,SAN RAFAEL ,METEOROLOGICA,PLUVIOGRAFICA,weatherStation,SUSPENDIDA,BOYACÁ,ALMEIDA,BATA,4.8666667,-73.3833333,1730,15/07/1982,15/04/1985,point,POINTZ(-73.3833333 4.8666667 1730),GEOCOL2004,atmosphere,1,1
3708,3708,AREA OPERATIVA 06,IDEAM,35070520,POMARROSOS LOS ,METEOROLOGICA,PLUVIOGRAFICA,weatherStation,ACTIVA,BOYACÁ,MACANAL,BATA,4.9314167,-73.3503611,1780,15/08/1982,,point,POINTZ(-73.3503611 4.9314167 1780),GEOCOL2004,atmosphere,1,1
3709,3709,AREA OPERATIVA 06,IDEAM,35070550,VALLE GRANDE ,METEOROLOGICA,PLUVIOGRAFICA,weatherStation,ACTIVA,BOYACÁ,TENZA,GARAGOA,5.0566111,-73.4269167,1830,15/05/1984,,point,POINTZ(-73.4269167 5.0566111 1830),GEOCOL2004,atmosphere,1,1
3728,3728,AREA OPERATIVA 06,IDEAM,35080050,PAEZ ,METEOROLOGICA,PLUVIOGRAFICA,weatherStation,ACTIVA,BOYACÁ,PÁEZ,LENGUAPA,5.0963611,-73.0532222,1350,15/11/1975,,point,POINTZ(-73.0532222 5.0963611 1350),GEOCOL2004,atmosphere,1,1
3736,3736,AREA OPERATIVA 06,IDEAM,35080140,CACHIPAY ,METEOROLOGICA,PLUVIOGRAFICA,weatherStation,SUSPENDIDA,BOYACÁ,SANTA MARÍA,LENGUPA,4.8833333,-73.25,850,15/02/1968,15/02/2002,point,POINTZ(-73.25 4.8833333 850),GEOCOL2004,atmosphere,1,1
3751,3751,AREA OPERATIVA 06,IDEAM,35090010,POTRERITO ,METEOROLOGICA,PLUVIOGRAFICA,weatherStation,ACTIVA,BOYACÁ,AQUITANIA,OLARTE,5.4775833,-72.9486111,3047,15/10/1964,,point,POINTZ(-72.9486111 5.4775833 3047),GEOCOL2004,atmosphere,1,1
3813,3813,AREA OPERATIVA 06,IDEAM,35190010,CINTAS LAS   ,METEOROLOGICA,PLUVIOGRAFICA,weatherStation,ACTIVA,BOYACÁ,SOGAMOSO,QDA LAS CINTAS,5.6141389,-72.8676667,3400,15/02/1971,,point,POINTZ(-72.8676667 5.6141389 3400),GEOCOL2004,atmosphere,1,1
3815,3815,AREA OPERATIVA 06,IDEAM,35190030,CHAMEZA ,METEOROLOGICA,PLUVIOGRAFICA,weatherStation,ACTIVA,CASANARE,CHÁMEZA,SALINERO,5.2043889,-72.9028889,1080,15/11/1974,,point,POINTZ(-72.9028889 5.2043889 1080),GEOCOL2004,atmosphere,1,1
3820,3820,AREA OPERATIVA 06,IDEAM,35190120,PAJARITO AUTOMATICA ,METEOROLOGICA,PLUVIOGRAFICA,weatherStation,SUSPENDIDA,BOYACÁ,PAJARITO,CUSIANA,5.2834722,-72.7019444,770,15/05/1999,30/09/2010,point,POINTZ(-72.7019444 5.2834722 770),GEOCOL2004,atmosphere,1,1
3844,3844,AREA OPERATIVA 06,IDEAM,35210040,MOLINOS D CASANARE  ,METEOROLOGICA,PLUVIOGRAFICA,weatherStation,ACTIVA,CASANARE,YOPAL,CRAVO SUR,5.41325,-72.2983056,330,15/11/1995,,point,POINTZ(-72.2983056 5.41325 330),GEOCOL2004,atmosphere,1,1
3845,3845,AREA OPERATIVA 06,IDEAM,35210050,CHAPARRERA LA   ,METEOROLOGICA,PLUVIOGRAFICA,weatherStation,ACTIVA,CASANARE,YOPAL,TOCARIA,5.4918889,-72.2293611,395,15/11/1995,,point,POINTZ(-72.2293611 5.4918889 395),GEOCOL2004,atmosphere,1,1
3846,3846,AREA OPERATIVA 06,IDEAM,35210060,DESECHO EL HDA  ,METEOROLOGICA,PLUVIOGRAFICA,weatherStation,ACTIVA,CASANARE,NUNCHÍA,GUANAPALO,5.6091111,-72.0678056,345,15/11/1995,,point,POINTZ(-72.0678056 5.6091111 345),GEOCOL2004,atmosphere,1,1
3859,3859,AREA OPERATIVA 03,IDEAM,35220030,OROCUE ,METEOROLOGICA,PLUVIOGRAFICA,weatherStation,ACTIVA,CASANARE,OROCUÉ,META,4.7932778,-71.3291111,130,15/04/1981,,point,POINTZ(-71.3291111 4.7932778 130),GEOCOL2004,atmosphere,1,1
3872,3872,AREA OPERATIVA 06,IDEAM,35230030,TABLON DE TAMARA  ,METEOROLOGICA,PLUVIOGRAFICA,weatherStation,ACTIVA,CASANARE,TÁMARA,PAUTO,5.7471944,-72.103,350,15/10/1960,,point,POINTZ(-72.103 5.7471944 350),GEOCOL2004,atmosphere,1,1
3873,3873,AREA OPERATIVA 06,IDEAM,35230040,BANCO EL   ,METEOROLOGICA,PLUVIOGRAFICA,weatherStation,ACTIVA,CASANARE,PORE,PAUTO,5.6343889,-72.0026389,320,15/11/1995,,point,POINTZ(-72.0026389 5.6343889 320),GEOCOL2004,atmosphere,1,1
3908,3908,AREA OPERATIVA 06,IDEAM,36010020,AGUADA LA   ,METEOROLOGICA,PLUVIOGRAFICA,weatherStation,ACTIVA,CASANARE,PAZ DE ARIPORO,ARIPORO,5.9000028,-72.0041667,500,15/11/1995,,point,POINTZ(-72.0041667 5.9000028 500),GEOCOL2004,atmosphere,1,1
3909,3909,AREA OPERATIVA 06,IDEAM,36010030,STA RITA   ,METEOROLOGICA,PLUVIOGRAFICA,weatherStation,ACTIVA,CASANARE,HATO COROZAL,ARIPORO,5.93425,-71.8339167,350,15/11/1995,,point,POINTZ(-71.8339167 5.93425 350),GEOCOL2004,atmosphere,1,1
4016,4016,AREA OPERATIVA 07,IDEAM,44010040,MINCHOY ,METEOROLOGICA,PLUVIOGRAFICA,weatherStation,ACTIVA,PUTUMAYO,SAN FRANCISCO,PUTUMAYO,1.2021111,-76.8170833,2300,15/11/1977,,point,POINTZ(-76.8170833 1.2021111 2300),GEOCOL2004,atmosphere,1,1
4020,4020,AREA OPERATIVA 07,IDEAM,44010100,STA ROSA ,METEOROLOGICA,PLUVIOGRAFICA,weatherStation,ACTIVA,CAUCA,SANTA ROSA,CAQUETA,1.6948333,-76.5712222,1510,15/02/1983,,point,POINTZ(-76.5712222 1.6948333 1510),GEOCOL2004,atmosphere,1,1
4142,4142,AREA OPERATIVA 07,IDEAM,47010020,BALSAYACO ,METEOROLOGICA,PLUVIOGRAFICA,weatherStation,ACTIVA,PUTUMAYO,SANTIAGO,PUTUMAYO,1.1178889,-76.9812778,2070,15/03/1959,,point,POINTZ(-76.9812778 1.1178889 2070),GEOCOL2004,atmosphere,1,1
4144,4144,AREA OPERATIVA 07,IDEAM,47010040,CHALET GUAMUES ,METEOROLOGICA,PLUVIOGRAFICA,weatherStation,SUSPENDIDA,NARIÑO,PASTO,GUAMUES,1.15,-77.1166667,2950,15/05/1970,15/05/1989,point,POINTZ(-77.1166667 1.15 2950),GEOCOL2004,atmosphere,1,1
4238,4238,AREA OPERATIVA 07,IDEAM,51020010,JUNIN    ,METEOROLOGICA,PLUVIOGRAFICA,weatherStation,ACTIVA,NARIÑO,BARBACOAS,GUIZA,1.3402778,-78.1223333,950,15/05/1963,,point,POINTZ(-78.1223333 1.3402778 950),GEOCOL2004,atmosphere,1,1
4239,4239,AREA OPERATIVA 07,IDEAM,51020011,Piedrancha - Autom ,METEOROLOGICA,PLUVIOGRAFICA,weatherStation,ACTIVA,NARIÑO,MALLAMA (Piedrancha),,1.1415278,-77.9289722,1830,01/07/2016 12:00:00 AM,,point,POINTZ(-77.9289722 1.1415278 1830),GEOCOL2004,atmosphere,1,1
4264,4264,AREA OPERATIVA 07,IDEAM,52010050,PARRAGA    ,METEOROLOGICA,PLUVIOGRAFICA,weatherStation,ACTIVA,CAUCA,ROSAS,ERMITA,2.23225,-76.7878611,1500,15/01/1968,,point,POINTZ(-76.7878611 2.23225 1500),GEOCOL2004,atmosphere,1,1
4268,4268,AREA OPERATIVA 09,IDEAM,52010100,QUILCASE    ,METEOROLOGICA,PLUVIOGRAFICA,weatherStation,ACTIVA,CAUCA,EL TAMBO,QUILCASE,2.3321667,-76.8486944,916,15/07/1974,,point,POINTZ(-76.8486944 2.3321667 916),GEOCOL2004,atmosphere,1,1
4274,4274,AREA OPERATIVA 07,IDEAM,52010190,ESTRELLAS LAS ,METEOROLOGICA,PLUVIOGRAFICA,weatherStation,ACTIVA,CAUCA,SOTARÁ (Paispamba),QUILCASE,2.1722222,-76.6105556,2430,15/06/1994,,point,POINTZ(-76.6105556 2.1722222 2430),GEOCOL2004,atmosphere,1,1
4300,4300,AREA OPERATIVA 07,IDEAM,52020180,QUEBRADILLAS ,METEOROLOGICA,PLUVIOGRAFICA,weatherStation,ACTIVA,CAUCA,ALMAGUER,SAN JORGE,1.9509722,-76.7329167,3100,15/06/1994,,point,POINTZ(-76.7329167 1.9509722 3100),GEOCOL2004,atmosphere,1,1
4301,4301,AREA OPERATIVA 07,IDEAM,52020190,GUACHICONO ,METEOROLOGICA,PLUVIOGRAFICA,weatherStation,ACTIVA,CAUCA,LA VEGA,FRIO,2.03,-76.6734167,2760,15/06/1994,,point,POINTZ(-76.6734167 2.03 2760),GEOCOL2004,atmosphere,1,1
4332,4332,AREA OPERATIVA 07,IDEAM,52040170,TERRAZA LA   ,METEOROLOGICA,PLUVIOGRAFICA,weatherStation,ACTIVA,NARIÑO,PASTO,PASTO,1.2251111,-77.2833889,2150,15/05/2000,,point,POINTZ(-77.2833889 1.2251111 2150),GEOCOL2004,atmosphere,1,1
4396,4396,AREA OPERATIVA 07,IDEAM,52070040,NORTES LOS AUTOMATICA ,METEOROLOGICA,PLUVIOGRAFICA,weatherStation,SUSPENDIDA,NARIÑO,CUMBITARA,PATIA,1.7411111,-77.5311111,340,19/02/2009,12/11/2010 12:00:00 AM,point,POINTZ(-77.5311111 1.7411111 340),GEOCOL2004,atmosphere,1,1
4417,4417,AREA OPERATIVA 07,IDEAM,53070030,PTO LOPEZ ,METEOROLOGICA,PLUVIOGRAFICA,weatherStation,ACTIVA,CAUCA,LÓPEZ,MICAY,2.8452778,-77.2489722,80,15/04/1960,,point,POINTZ(-77.2489722 2.8452778 80),GEOCOL2004,atmosphere,1,1
4418,4418,AREA OPERATIVA 07,IDEAM,53070040,CAMP EL PORVENIR ,METEOROLOGICA,PLUVIOGRAFICA,weatherStation,SUSPENDIDA,CAUCA,EL TAMBO,MICAY,2.7666667,-77.0666667,200,15/05/1987,15/08/1988,point,POINTZ(-77.0666667 2.7666667 200),GEOCOL2004,atmosphere,1,1
4424,4424,AREA OPERATIVA 07,IDEAM,53070110,PIEDRAS LAS ,METEOROLOGICA,PLUVIOGRAFICA,weatherStation,SUSPENDIDA,CAUCA,EL TAMBO,MICAY,2.4166667,-77.1833333,500,15/01/1967,15/01/1976,point,POINTZ(-77.1833333 2.4166667 500),GEOCOL2004,atmosphere,1,1
4443,4443,AREA OPERATIVA 09,IDEAM,53110140,BUENAVENTURA AUTOM   ,METEOROLOGICA,PLUVIOGRAFICA,weatherStation,ACTIVA,VALLE DEL CAUCA,BUENAVENTURA,PACIFICO,3.890175,-77.0619083,40,17/07/2009,,point,POINTZ(-77.0619083 3.890175 40),GEOCOL2004,atmosphere,1,1
4471,4471,AREA OPERATIVA 09,IDEAM,54050020,NOANAMA ,METEOROLOGICA,PLUVIOGRAFICA,weatherStation,SUSPENDIDA,CHOCÓ,ISTMINA,COPOMA,4.6666667,-76.8666667,18,15/07/1966,15/12/1970,point,POINTZ(-76.8666667 4.6666667 18),GEOCOL2004,atmosphere,1,1
4494,4494,AREA OPERATIVA 01,IDEAM,56010050,ARUSI    ,METEOROLOGICA,PLUVIOGRAFICA,weatherStation,ACTIVA,CHOCÓ,NUQUÍ,PACIFICO,5.5957778,-77.4756111,20,01/03/2010 12:00:00 AM,,point,POINTZ(-77.4756111 5.5957778 20),GEOCOL2004,atmosphere,1,1
1,1,AREA OPERATIVA 01,IDEAM,11010010,VUELTA LA ,METEOROLOGICA,PLUVIOMETRICA,weatherStation,ACTIVA,CHOCÓ,LLORÓ,ANDAGUEDA,5.4588611,-76.545,100,15/01/1943,,point,POINTZ(-76.545 5.4588611 100),GEOCOL2004,atmosphere,1,2
3,3,AREA OPERATIVA 01,IDEAM,11020010,CARMEN DE ATRATO ,METEOROLOGICA,PLUVIOMETRICA,weatherStation,ACTIVA,CHOCÓ,EL CARMEN,ATRATO,5.9085278,-76.1420833,1850,15/10/1958,,point,POINTZ(-76.1420833 5.9085278 1850),GEOCOL2004,atmosphere,1,2
4,4,AREA OPERATIVA 01,IDEAM,11020020,GUADUAS ,METEOROLOGICA,PLUVIOMETRICA,weatherStation,SUSPENDIDA,CHOCÓ,EL CARMEN,GUADUAS,5.7666667,-76.1833333,1500,15/03/1977,15/04/2002,point,POINTZ(-76.1833333 5.7666667 1500),GEOCOL2004,atmosphere,1,2
5,5,AREA OPERATIVA 01,IDEAM,11020050,PINON EL   ,METEOROLOGICA,PLUVIOMETRICA,weatherStation,ACTIVA,CHOCÓ,EL CARMEN,ATRATO,5.7576667,-76.2508611,715,15/10/1958,,point,POINTZ(-76.2508611 5.7576667 715),GEOCOL2004,atmosphere,1,2
14,14,AREA OPERATIVA 09,IDEAM,11030010,CERTEGUI    ,METEOROLOGICA,PLUVIOMETRICA,weatherStation,ACTIVA,CHOCÓ,CÉRTEGUI,QUITO,5.3750278,-76.6131111,72,15/01/1967,,point,POINTZ(-76.6131111 5.3750278 72),GEOCOL2004,atmosphere,1,2
15,15,AREA OPERATIVA 09,IDEAM,11030030,MANAGRU    ,METEOROLOGICA,PLUVIOMETRICA,weatherStation,ACTIVA,CHOCÓ,EL CANTÓN DEL SAN ,SAN PABLO,5.3341667,-76.7281389,64,15/02/1977,,point,POINTZ(-76.7281389 5.3341667 64),GEOCOL2004,atmosphere,1,2
16,16,AREA OPERATIVA 01,IDEAM,11030040,PAIMADO ,METEOROLOGICA,PLUVIOMETRICA,weatherStation,ACTIVA,CHOCÓ,RIO QUITO (Paimadó),QUITO,5.4816111,-76.7408611,35,15/02/1977,,point,POINTZ(-76.7408611 5.4816111 35),GEOCOL2004,atmosphere,1,2
18,18,AREA OPERATIVA 01,IDEAM,11035020,SAN ISIDRO   ,METEOROLOGICA,PLUVIOMETRICA,weatherStation,ACTIVA,CHOCÓ,RIO QUITO (Paimadó),QUITO,5.6261667,-76.7497222,53,15/03/1983,,point,POINTZ(-76.7497222 5.6261667 53),GEOCOL2004,atmosphere,1,2
22,22,AREA OPERATIVA 01,IDEAM,11040010,TUTUNENDO ,METEOROLOGICA,PLUVIOMETRICA,weatherStation,ACTIVA,CHOCÓ,QUIBDÓ,ICHO,5.7436111,-76.5378056,54,15/01/1966,,point,POINTZ(-76.5378056 5.7436111 54),GEOCOL2004,atmosphere,1,2
29,29,AREA OPERATIVA 01,IDEAM,11050010,TAGACHI ,METEOROLOGICA,PLUVIOMETRICA,weatherStation,ACTIVA,CHOCÓ,QUIBDÓ,ATRATO,6.2217778,-76.7270278,20,15/01/1966,,point,POINTZ(-76.7270278 6.2217778 20),GEOCOL2004,atmosphere,1,2
30,30,AREA OPERATIVA 01,IDEAM,11050020,BETE  ,METEOROLOGICA,PLUVIOMETRICA,weatherStation,ACTIVA,CHOCÓ,MEDIO ATRATO (Beté),ATRATO,5.9947222,-76.7800278,25,15/02/1977,,point,POINTZ(-76.7800278 5.9947222 25),GEOCOL2004,atmosphere,1,2
31,31,AREA OPERATIVA 01,IDEAM,11050030,BUEY EL  ,METEOROLOGICA,PLUVIOMETRICA,weatherStation,ACTIVA,CHOCÓ,MEDIO ATRATO (Beté),BUEY,6.1025,-76.8213611,25,15/02/1977,,point,POINTZ(-76.8213611 6.1025 25),GEOCOL2004,atmosphere,1,2
32,32,AREA OPERATIVA 01,IDEAM,11050040,CALAORRA ,METEOROLOGICA,PLUVIOMETRICA,weatherStation,SUSPENDIDA,CHOCÓ,QUIBDÓ,MUNGUIDO,5.7666667,-76.85,50,15/02/1977,15/03/1994,point,POINTZ(-76.85 5.7666667 50),GEOCOL2004,atmosphere,1,2
33,33,AREA OPERATIVA 01,IDEAM,11050060,ALTO DEL BUEY ,METEOROLOGICA,PLUVIOMETRICA,weatherStation,ACTIVA,CHOCÓ,MEDIO ATRATO (Beté),BUEY,6.1083333,-76.9156389,100,15/02/1977,,point,POINTZ(-76.9156389 6.1083333 100),GEOCOL2004,atmosphere,1,2
36,36,AREA OPERATIVA 01,IDEAM,11060010,BUCHADO ,METEOROLOGICA,PLUVIOMETRICA,weatherStation,ACTIVA,ANTIOQUIA,VIGIA DEL FUERTE,ATRATO,6.42,-76.7792778,18,15/01/1969,,point,POINTZ(-76.7792778 6.42 18),GEOCOL2004,atmosphere,1,2
37,37,AREA OPERATIVA 01,IDEAM,11070010,PLAYA LA-MURRY ,METEOROLOGICA,PLUVIOMETRICA,weatherStation,SUSPENDIDA,ANTIOQUIA,VIGIA DEL FUERTE,MURRY,6.6166667,-76.75,22,15/12/1966,15/02/2002,point,POINTZ(-76.75 6.6166667 22),GEOCOL2004,atmosphere,1,2
38,38,AREA OPERATIVA 01,IDEAM,11070020,ROBLE EL ,METEOROLOGICA,PLUVIOMETRICA,weatherStation,ACTIVA,ANTIOQUIA,URRAO,OROBUGO,6.3322222,-76.2286111,2050,15/03/1977,,point,POINTZ(-76.2286111 6.3322222 2050),GEOCOL2004,atmosphere,1,2
39,39,AREA OPERATIVA 01,IDEAM,11070030,CLARITA LA ,METEOROLOGICA,PLUVIOMETRICA,weatherStation,ACTIVA,ANTIOQUIA,URRAO,ENCARNACION,6.5394444,-76.1586111,2150,15/03/1977,,point,POINTZ(-76.1586111 6.5394444 2150),GEOCOL2004,atmosphere,1,2
40,40,AREA OPERATIVA 01,IDEAM,11070040,URRAO ,METEOROLOGICA,PLUVIOMETRICA,weatherStation,SUSPENDIDA,ANTIOQUIA,URRAO,PENDERISCO,6.3333333,-76.1666667,1875,15/01/1969,15/07/1973,point,POINTZ(-76.1666667 6.3333333 1875),GEOCOL2004,atmosphere,1,2
41,41,AREA OPERATIVA 01,IDEAM,11070130,BRECHON EL ,METEOROLOGICA,PLUVIOMETRICA,weatherStation,SUSPENDIDA,ANTIOQUIA,URRAO,PENDERISCO,6.1333333,-76.0333333,2320,15/10/1970,15/01/2000,point,POINTZ(-76.0333333 6.1333333 2320),GEOCOL2004,atmosphere,1,2
47,47,AREA OPERATIVA 01,IDEAM,11080010,BELLAVISTA ,METEOROLOGICA,PLUVIOMETRICA,weatherStation,ACTIVA,CHOCÓ,BOJAYÁ (Bellavista),ATRATO,6.5591667,-76.8854167,15,15/07/1966,,point,POINTZ(-76.8854167 6.5591667 15),GEOCOL2004,atmosphere,1,2
48,48,AREA OPERATIVA 01,IDEAM,11080030,LOMA LA-BOJAYA ,METEOROLOGICA,PLUVIOMETRICA,weatherStation,SUSPENDIDA,CHOCÓ,BOJAYÁ (Bellavista),BOJAYA,6.5333333,-76.9833333,20,15/01/1967,15/08/1980,point,POINTZ(-76.9833333 6.5333333 20),GEOCOL2004,atmosphere,1,2
50,50,AREA OPERATIVA 01,IDEAM,11090010,OPOGADO ,METEOROLOGICA,PLUVIOMETRICA,weatherStation,ACTIVA,CHOCÓ,BOJAYÁ (Bellavista),OPOGADO,6.8125278,-76.9727222,50,15/04/1977,,point,POINTZ(-76.9727222 6.8125278 50),GEOCOL2004,atmosphere,1,2
51,51,AREA OPERATIVA 01,IDEAM,11100010,VIGIA DE CURVARADO ,METEOROLOGICA,PLUVIOMETRICA,weatherStation,SUSPENDIDA,CHOCÓ,CARMEN DEL DARIÉN  ,ATRATO,7.0833333,-76.9166667,25,15/06/1972,15/02/2002,point,POINTZ(-76.9166667 7.0833333 25),GEOCOL2004,atmosphere,1,2
52,52,AREA OPERATIVA 01,IDEAM,11100020,DOMINGODO ,METEOROLOGICA,PLUVIOMETRICA,weatherStation,ACTIVA,CHOCÓ,CARMEN DEL DARIÉN  ,ATRATO,7.1785,-77.0344722,11,15/01/1966,,point,POINTZ(-77.0344722 7.1785 11),GEOCOL2004,atmosphere,1,2
53,53,AREA OPERATIVA 01,IDEAM,11100030,MURINDO ,METEOROLOGICA,PLUVIOMETRICA,weatherStation,SUSPENDIDA,ANTIOQUIA,MURINDÓ,MURINDO,7,-76.75,23,15/12/1981,15/12/1986,point,POINTZ(-76.75 7 23),GEOCOL2004,atmosphere,1,2
57,57,AREA OPERATIVA 01,IDEAM,11110010,NORMAL STA TERESA ,METEOROLOGICA,PLUVIOMETRICA,weatherStation,ACTIVA,ANTIOQUIA,FRONTINO,QDA DE CRUCES,6.7633333,-76.1336111,1370,15/01/1969,,point,POINTZ(-76.1336111 6.7633333 1370),GEOCOL2004,atmosphere,1,2
59,59,AREA OPERATIVA 01,IDEAM,11110030,FUEMIA ,METEOROLOGICA,PLUVIOMETRICA,weatherStation,ACTIVA,ANTIOQUIA,FRONTINO,VERDE,6.8580556,-76.2522222,905,15/03/1977,,point,POINTZ(-76.2522222 6.8580556 905),GEOCOL2004,atmosphere,1,2
60,60,AREA OPERATIVA 01,IDEAM,11110040,CAÑASGORDAS ,METEOROLOGICA,PLUVIOMETRICA,weatherStation,SUSPENDIDA,ANTIOQUIA,CAÑASGORDAS,CA#ASGORDAS,6.75,-76.0333333,1200,15/01/1966,15/12/1973,point,POINTZ(-76.0333333 6.75 1200),GEOCOL2004,atmosphere,1,2
61,61,AREA OPERATIVA 01,IDEAM,11110060,DABEIBA ,METEOROLOGICA,PLUVIOMETRICA,weatherStation,SUSPENDIDA,ANTIOQUIA,DABEIBA,URAMA,7,-76.2666667,540,15/07/1944,15/05/1948,point,POINTZ(-76.2666667 7 540),GEOCOL2004,atmosphere,1,2
72,72,AREA OPERATIVA 01,IDEAM,11120010,SALAQUI ,METEOROLOGICA,PLUVIOMETRICA,weatherStation,SUSPENDIDA,CHOCÓ,RIOSUCIO,SALAQUI,7.4333333,-77.2833333,20,15/11/1974,15/11/1983,point,POINTZ(-77.2833333 7.4333333 20),GEOCOL2004,atmosphere,1,2
73,73,AREA OPERATIVA 01,IDEAM,11120040,RIOSUCIO ,METEOROLOGICA,PLUVIOMETRICA,weatherStation,ACTIVA,CHOCÓ,RIOSUCIO,ATRATO,7.4394444,-77.1152778,8,15/09/1960,,point,POINTZ(-77.1152778 7.4394444 8),GEOCOL2004,atmosphere,1,2
76,76,AREA OPERATIVA 01,IDEAM,11130010,UNGUIA ,METEOROLOGICA,PLUVIOMETRICA,weatherStation,ACTIVA,CHOCÓ,UNGUÍA,CGA. UNGUIA,8.0367222,-77.0878611,14,15/11/1974,,point,POINTZ(-77.0878611 8.0367222 14),GEOCOL2004,atmosphere,1,2
77,77,AREA OPERATIVA 01,IDEAM,11130020,HONDA LA ,METEOROLOGICA,PLUVIOMETRICA,weatherStation,SUSPENDIDA,CHOCÓ,RIOSUCIO,ATRATO,7.5766667,-77.1255556,5,15/04/1972,15/04/1972,point,POINTZ(-77.1255556 7.5766667 5),GEOCOL2004,atmosphere,1,2
78,78,AREA OPERATIVA 01,IDEAM,11130030,SAUTATA ,METEOROLOGICA,PLUVIOMETRICA,weatherStation,SUSPENDIDA,CHOCÓ,RIOSUCIO,ATRATO,7.8666667,-77.1666667,5,15/01/1967,15/10/1971,point,POINTZ(-77.1666667 7.8666667 5),GEOCOL2004,atmosphere,1,2
82,82,AREA OPERATIVA 01,IDEAM,11140010,MARIRRIO ,METEOROLOGICA,PLUVIOMETRICA,weatherStation,SUSPENDIDA,ANTIOQUIA,TURBO,CARIBE,8,-76.95,1,15/07/1987,15/07/1989,point,POINTZ(-76.95 8 1),GEOCOL2004,atmosphere,1,2
87,87,AREA OPERATIVA 01,IDEAM,11150010,TITUMATE    ,METEOROLOGICA,PLUVIOMETRICA,weatherStation,ACTIVA,CHOCÓ,UNGUÍA,MAR CARIBE,8.3080556,-77.0758333,11,15/11/1974,,point,POINTZ(-77.0758333 8.3080556 11),GEOCOL2004,atmosphere,1,2
88,88,AREA OPERATIVA 01,IDEAM,11150020,TANELA    ,METEOROLOGICA,PLUVIOMETRICA,weatherStation,ACTIVA,CHOCÓ,UNGUÍA,TANELA,8.1629167,-77.0404167,2,15/11/1974,,point,POINTZ(-77.0404167 8.1629167 2),GEOCOL2004,atmosphere,1,2
89,89,AREA OPERATIVA 01,IDEAM,11150030,ACANDI ,METEOROLOGICA,PLUVIOMETRICA,weatherStation,ACTIVA,CHOCÓ,ACANDÍ,ACANDI,8.5308333,-77.2769444,2,15/04/1980,,point,POINTZ(-77.2769444 8.5308333 2),GEOCOL2004,atmosphere,1,2
94,94,AREA OPERATIVA 01,IDEAM,12010010,TORMENTO EL ,METEOROLOGICA,PLUVIOMETRICA,weatherStation,ACTIVA,ANTIOQUIA,TURBO,LEON,7.7663889,-76.8552778,20,15/01/1972,,point,POINTZ(-76.8552778 7.7663889 20),GEOCOL2004,atmosphere,1,2
95,95,AREA OPERATIVA 01,IDEAM,12010020,PALMERA LA ,METEOROLOGICA,PLUVIOMETRICA,weatherStation,SUSPENDIDA,ANTIOQUIA,CHIGORODÓ,LEON,7.5383333,-76.6055556,58,15/03/1972,15/02/1991,point,POINTZ(-76.6055556 7.5383333 58),GEOCOL2004,atmosphere,1,2
96,96,AREA OPERATIVA 01,IDEAM,12010030,BARRANQUILLITA    ,METEOROLOGICA,PLUVIOMETRICA,weatherStation,ACTIVA,ANTIOQUIA,CHIGORODÓ,LEON,7.5711111,-76.6975,18,15/12/1974,,point,POINTZ(-76.6975 7.5711111 18),GEOCOL2004,atmosphere,1,2
97,97,AREA OPERATIVA 01,IDEAM,12010040,TULENAPA ,METEOROLOGICA,PLUVIOMETRICA,weatherStation,SUSPENDIDA,ANTIOQUIA,CHIGORODÓ,CHIGORODO,7.6666667,-76.6666667,30,15/08/1974,15/08/1982,point,POINTZ(-76.6666667 7.6666667 30),GEOCOL2004,atmosphere,1,2
98,98,AREA OPERATIVA 01,IDEAM,12010050,TOSCANA LA   ,METEOROLOGICA,PLUVIOMETRICA,weatherStation,ACTIVA,ANTIOQUIA,CAREPA,VIJAGUAL,7.8080556,-76.7030556,15,15/07/1977,,point,POINTZ(-76.7030556 7.8080556 15),GEOCOL2004,atmosphere,1,2
99,99,AREA OPERATIVA 01,IDEAM,12010060,LORENA LA   ,METEOROLOGICA,PLUVIOMETRICA,weatherStation,ACTIVA,ANTIOQUIA,APARTADÓ,ZUNGO,7.8630556,-76.6891667,10,15/07/1976,,point,POINTZ(-76.6891667 7.8630556 10),GEOCOL2004,atmosphere,1,2
100,100,AREA OPERATIVA 01,IDEAM,12010070,CASCO EL   ,METEOROLOGICA,PLUVIOMETRICA,weatherStation,ACTIVA,ANTIOQUIA,APARTADÓ,CHURIDO,7.8844444,-76.6477778,18,15/07/1977,,point,POINTZ(-76.6477778 7.8844444 18),GEOCOL2004,atmosphere,1,2
101,101,AREA OPERATIVA 01,IDEAM,12010080,STA ISABEL ,METEOROLOGICA,PLUVIOMETRICA,weatherStation,SUSPENDIDA,ANTIOQUIA,CAREPA,QDA PECHINDE,7.75,-76.6666667,30,15/07/1977,15/04/1994,point,POINTZ(-76.6666667 7.75 30),GEOCOL2004,atmosphere,1,2
102,102,AREA OPERATIVA 01,IDEAM,12010090,TRIGANA    ,METEOROLOGICA,PLUVIOMETRICA,weatherStation,ACTIVA,ANTIOQUIA,CAREPA,CHIRIDO,7.7476667,-76.7118889,4,15/06/1977,,point,POINTZ(-76.7118889 7.7476667 4),GEOCOL2004,atmosphere,1,2
103,103,AREA OPERATIVA 01,IDEAM,12010100,EUPOL    ,METEOROLOGICA,PLUVIOMETRICA,weatherStation,ACTIVA,ANTIOQUIA,TURBO,RIOGRANDE,7.9455278,-76.6173889,10,15/07/1977,,point,POINTZ(-76.6173889 7.9455278 10),GEOCOL2004,atmosphere,1,2
104,104,AREA OPERATIVA 01,IDEAM,12010110,PRADO MAR   ,METEOROLOGICA,PLUVIOMETRICA,weatherStation,ACTIVA,ANTIOQUIA,TURBO,CNO VIEJO,7.9874167,-76.6385278,5,15/07/1977,,point,POINTZ(-76.6385278 7.9874167 5),GEOCOL2004,atmosphere,1,2
105,105,AREA OPERATIVA 01,IDEAM,12010120,STA MARTHA   ,METEOROLOGICA,PLUVIOMETRICA,weatherStation,ACTIVA,ANTIOQUIA,TURBO,RIOGRANDE,7.9238333,-76.6490833,130,15/07/1977,,point,POINTZ(-76.6490833 7.9238333 130),GEOCOL2004,atmosphere,1,2
106,106,AREA OPERATIVA 01,IDEAM,12010130,CHIGORODO ,METEOROLOGICA,PLUVIOMETRICA,weatherStation,SUSPENDIDA,ANTIOQUIA,CHIGORODÓ,CHIGORODO,7.7,-76.7,30,15/01/1966,15/03/1972,point,POINTZ(-76.7 7.7 30),GEOCOL2004,atmosphere,1,2
107,107,AREA OPERATIVA 01,IDEAM,12010140,RIOGRANDE ,METEOROLOGICA,PLUVIOMETRICA,weatherStation,SUSPENDIDA,ANTIOQUIA,TURBO,ZUNGO,7.9333333,-76.6333333,5,15/01/1972,15/07/1977,point,POINTZ(-76.6333333 7.9333333 5),GEOCOL2004,atmosphere,1,2
108,108,AREA OPERATIVA 01,IDEAM,12010150,VILLA ARTEAGA ,METEOROLOGICA,PLUVIOMETRICA,weatherStation,SUSPENDIDA,ANTIOQUIA,MUTATÁ,TIGUI,7.45,-76.6166667,150,15/01/1946,15/03/1972,point,POINTZ(-76.6166667 7.45 150),GEOCOL2004,atmosphere,1,2
132,132,AREA OPERATIVA 01,IDEAM,12020010,PUEBLO BELLO   ,METEOROLOGICA,PLUVIOMETRICA,weatherStation,ACTIVA,ANTIOQUIA,TURBO,MULATOS,8.2041667,-76.5247222,10,15/04/1972,,point,POINTZ(-76.5247222 8.2041667 10),GEOCOL2004,atmosphere,1,2
133,133,AREA OPERATIVA 01,IDEAM,12020040,NUEVA ANTIOQUIA ,METEOROLOGICA,PLUVIOMETRICA,weatherStation,SUSPENDIDA,ANTIOQUIA,TURBO,CURRULAO,8.05,-76.55,13,15/02/1987,15/01/1996,point,POINTZ(-76.55 8.05 13),GEOCOL2004,atmosphere,1,2
144,144,AREA OPERATIVA 02,IDEAM,12030010,SAN JUAN DE URABA ,METEOROLOGICA,PLUVIOMETRICA,weatherStation,ACTIVA,ANTIOQUIA,SAN JUAN DE URABÁ,SAN JUAN D URABA,8.7552222,-76.5330556,4,15/04/1972,,point,POINTZ(-76.5330556 8.7552222 4),GEOCOL2004,atmosphere,1,2
145,145,AREA OPERATIVA 02,IDEAM,12030020,CARMELO EL   ,METEOROLOGICA,PLUVIOMETRICA,weatherStation,ACTIVA,ANTIOQUIA,ARBOLETES,SAN JUAN D URABA,8.6169444,-76.3813889,50,15/03/1972,,point,POINTZ(-76.3813889 8.6169444 50),GEOCOL2004,atmosphere,1,2
150,150,AREA OPERATIVA 02,IDEAM,12040010,JARAMAGAL    ,METEOROLOGICA,PLUVIOMETRICA,weatherStation,ACTIVA,CÓRDOBA,PUERTO ESCONDIDO,QDA SESA,8.9008333,-76.2208333,90,15/10/1973,,point,POINTZ(-76.2208333 8.9008333 90),GEOCOL2004,atmosphere,1,2
151,151,AREA OPERATIVA 02,IDEAM,12040020,CANALETE ,METEOROLOGICA,PLUVIOMETRICA,weatherStation,ACTIVA,CÓRDOBA,CANALETE,CANALETE,8.7869444,-76.2355556,40,15/01/1959,,point,POINTZ(-76.2355556 8.7869444 40),GEOCOL2004,atmosphere,1,2
157,157,AREA OPERATIVA 02,IDEAM,13010010,MOLINILLO ,METEOROLOGICA,PLUVIOMETRICA,weatherStation,SUSPENDIDA,CÓRDOBA,TIERRALTA,MANSO,7.6833333,-76.05,500,15/06/1990,15/03/1999,point,POINTZ(-76.05 7.6833333 500),GEOCOL2004,atmosphere,1,2
158,158,AREA OPERATIVA 02,IDEAM,13010020,TUCURA ,METEOROLOGICA,PLUVIOMETRICA,weatherStation,SUSPENDIDA,CÓRDOBA,TIERRALTA,MANSO,7.9333333,-76.2666667,120,15/08/1959,15/09/1973,point,POINTZ(-76.2666667 7.9333333 120),GEOCOL2004,atmosphere,1,2
159,159,AREA OPERATIVA 02,IDEAM,13010040,FLECHA LA ,METEOROLOGICA,PLUVIOMETRICA,weatherStation,SUSPENDIDA,CÓRDOBA,TIERRALTA,MANSO,7.6333333,-75.9666667,500,15/06/1990,15/03/1999,point,POINTZ(-75.9666667 7.6333333 500),GEOCOL2004,atmosphere,1,2
170,170,AREA OPERATIVA 02,IDEAM,13020010,DESPENSA LA ,METEOROLOGICA,PLUVIOMETRICA,weatherStation,SUSPENDIDA,CÓRDOBA,TIERRALTA,SINU,7.8833333,-76.3,160,15/01/1966,15/06/1990,point,POINTZ(-76.3 7.8833333 160),GEOCOL2004,atmosphere,1,2
171,171,AREA OPERATIVA 02,IDEAM,13020020,CIELO EL ,METEOROLOGICA,PLUVIOMETRICA,weatherStation,SUSPENDIDA,CÓRDOBA,TIERRALTA,QDA TEODORA,7.9166667,-76.4166667,650,15/09/1973,15/02/2002,point,POINTZ(-76.4166667 7.9166667 650),GEOCOL2004,atmosphere,1,2
172,172,AREA OPERATIVA 02,IDEAM,13020040,SAIZA ,METEOROLOGICA,PLUVIOMETRICA,weatherStation,SUSPENDIDA,CÓRDOBA,TIERRALTA,VERDE,7.7,-76.4833333,287,15/06/1990,15/02/2002,point,POINTZ(-76.4833333 7.7 287),GEOCOL2004,atmosphere,1,2
180,180,AREA OPERATIVA 02,IDEAM,13030010,TIERRALTA    ,METEOROLOGICA,PLUVIOMETRICA,weatherStation,ACTIVA,CÓRDOBA,TIERRALTA,SINU,8.1866667,-76.0530556,100,15/02/1959,,point,POINTZ(-76.0530556 8.1866667 100),GEOCOL2004,atmosphere,1,2
188,188,AREA OPERATIVA 02,IDEAM,13040010,QUIMARI ,METEOROLOGICA,PLUVIOMETRICA,weatherStation,SUSPENDIDA,CÓRDOBA,TIERRALTA,QDA QUIMARI,8.0666667,-76.3333333,200,15/09/1973,15/02/2002,point,POINTZ(-76.3333333 8.0666667 200),GEOCOL2004,atmosphere,1,2
189,189,AREA OPERATIVA 02,IDEAM,13040030,PEZVAL    ,METEOROLOGICA,PLUVIOMETRICA,weatherStation,ACTIVA,CÓRDOBA,VALENCIA,SINU,8.2622222,-76.1691667,80,15/09/1990,,point,POINTZ(-76.1691667 8.2622222 80),GEOCOL2004,atmosphere,1,2
196,196,AREA OPERATIVA 02,IDEAM,13050010,STA LUCIA   ,METEOROLOGICA,PLUVIOMETRICA,weatherStation,ACTIVA,CÓRDOBA,MONTERÍA,QDA DEL MEDIO,8.8486111,-76.0452778,120,15/08/1965,,point,POINTZ(-76.0452778 8.8486111 120),GEOCOL2004,atmosphere,1,2
197,197,AREA OPERATIVA 02,IDEAM,13050020,STA CRUZ HDA ,METEOROLOGICA,PLUVIOMETRICA,weatherStation,ACTIVA,CÓRDOBA,MONTERÍA,QDA FLORISANTO,8.6675,-76.1238889,220,15/10/1973,,point,POINTZ(-76.1238889 8.6675 220),GEOCOL2004,atmosphere,1,2
198,198,AREA OPERATIVA 02,IDEAM,13050030,LOMA VERDE ,METEOROLOGICA,PLUVIOMETRICA,weatherStation,ACTIVA,CÓRDOBA,MONTERÍA,QDA FLORISANTO,8.5019444,-76.1752778,100,15/12/1965,,point,POINTZ(-76.1752778 8.5019444 100),GEOCOL2004,atmosphere,1,2
199,199,AREA OPERATIVA 02,IDEAM,13050040,TRES PIEDRAS ,METEOROLOGICA,PLUVIOMETRICA,weatherStation,SUSPENDIDA,CÓRDOBA,MONTERÍA,SINU,8.45,-75.9666667,30,15/01/1959,15/10/1973,point,POINTZ(-75.9666667 8.45 30),GEOCOL2004,atmosphere,1,2
205,205,AREA OPERATIVA 02,IDEAM,13060010,SAN ANTERITO   ,METEOROLOGICA,PLUVIOMETRICA,weatherStation,ACTIVA,CÓRDOBA,MONTERÍA,AY AGUAVIVA,8.5577778,-75.8611111,75,15/09/1973,,point,POINTZ(-75.8611111 8.5577778 75),GEOCOL2004,atmosphere,1,2
206,206,AREA OPERATIVA 02,IDEAM,13060020,BUENOS AIRES   ,METEOROLOGICA,PLUVIOMETRICA,weatherStation,ACTIVA,CÓRDOBA,MONTERÍA,CNO BETANCI,8.4758333,-75.7652778,55,15/08/1965,,point,POINTZ(-75.7652778 8.4758333 55),GEOCOL2004,atmosphere,1,2
207,207,AREA OPERATIVA 02,IDEAM,13060030,CARAMELO ,METEOROLOGICA,PLUVIOMETRICA,weatherStation,ACTIVA,CÓRDOBA,TIERRALTA,QDA LAS LOMITAS,8.2661111,-75.9038889,60,15/12/1965,,point,POINTZ(-75.9038889 8.2661111 60),GEOCOL2004,atmosphere,1,2
218,218,AREA OPERATIVA 02,IDEAM,13070010,LIMON EL   ,METEOROLOGICA,PLUVIOMETRICA,weatherStation,ACTIVA,CÓRDOBA,SAN BERNARDO ,SINU,9.3361111,-75.9375,3,15/10/1964,,point,POINTZ(-75.9375 9.3361111 3),GEOCOL2004,atmosphere,1,2
220,220,AREA OPERATIVA 02,IDEAM,13070030,SABANA NUEVA ,METEOROLOGICA,PLUVIOMETRICA,weatherStation,SUSPENDIDA,CÓRDOBA,SAN PELAYO,SINU,9.0333333,-75.8333333,20,15/10/1973,15/06/2002,point,POINTZ(-75.8333333 9.0333333 20),GEOCOL2004,atmosphere,1,2
221,221,AREA OPERATIVA 02,IDEAM,13070040,RABOLARGO ,METEOROLOGICA,PLUVIOMETRICA,weatherStation,ACTIVA,CÓRDOBA,CERETÉ,CNO BUGRE,8.9506111,-75.7424722,19,15/01/1963,,point,POINTZ(-75.7424722 8.9506111 19),GEOCOL2004,atmosphere,1,2
222,222,AREA OPERATIVA 02,IDEAM,13070050,CERETE ,METEOROLOGICA,PLUVIOMETRICA,weatherStation,ACTIVA,CÓRDOBA,CERETÉ,CNO BUGRE,8.8903333,-75.78625,20,15/01/1963,,point,POINTZ(-75.78625 8.8903333 20),GEOCOL2004,atmosphere,1,2
223,223,AREA OPERATIVA 02,IDEAM,13070060,CGA DE ORO,METEOROLOGICA,PLUVIOMETRICA,weatherStation,ACTIVA,CÓRDOBA,CIÉNAGA DE ORO,CNO AGUAS PRIETA,8.8725,-75.6258333,25,15/09/1958,,point,POINTZ(-75.6258333 8.8725 25),GEOCOL2004,atmosphere,1,2
224,224,AREA OPERATIVA 02,IDEAM,13070070,BOCA DE LA CEIBA ,METEOROLOGICA,PLUVIOMETRICA,weatherStation,ACTIVA,CÓRDOBA,MONTERÍA,SINU,8.8299167,-75.8561111,20,15/01/1970,,point,POINTZ(-75.8561111 8.8299167 20),GEOCOL2004,atmosphere,1,2
226,226,AREA OPERATIVA 02,IDEAM,13070090,SAN CARLOS   ,METEOROLOGICA,PLUVIOMETRICA,weatherStation,ACTIVA,CÓRDOBA,SAN CARLOS,CNO AGUAS PRIETA,8.7905556,-75.7013889,60,15/01/1964,,point,POINTZ(-75.7013889 8.7905556 60),GEOCOL2004,atmosphere,1,2
227,227,AREA OPERATIVA 02,IDEAM,13070100,STA ROSA ,METEOROLOGICA,PLUVIOMETRICA,weatherStation,ACTIVA,CÓRDOBA,SAN CARLOS,CNO AGUAS PRIETA,8.7411111,-75.6014167,140,15/01/1963,,point,POINTZ(-75.6014167 8.7411111 140),GEOCOL2004,atmosphere,1,2
228,228,AREA OPERATIVA 02,IDEAM,13070110,CARRIZAL ,METEOROLOGICA,PLUVIOMETRICA,weatherStation,ACTIVA,CÓRDOBA,SAN CARLOS,CNO AGUAS PRIETA,8.6819444,-75.7535278,40,15/08/1965,,point,POINTZ(-75.7535278 8.6819444 40),GEOCOL2004,atmosphere,1,2
229,229,AREA OPERATIVA 02,IDEAM,13070120,CALLEMAR    ,METEOROLOGICA,PLUVIOMETRICA,weatherStation,ACTIVA,CÓRDOBA,SAN CARLOS,CNO AGUAS PRIETA,8.6975,-75.6777778,95,15/06/1963,,point,POINTZ(-75.6777778 8.6975 95),GEOCOL2004,atmosphere,1,2
233,233,AREA OPERATIVA 02,IDEAM,13070160,BERASTEGUI ,METEOROLOGICA,PLUVIOMETRICA,weatherStation,SUSPENDIDA,CÓRDOBA,CIÉNAGA DE ORO,CNO AGUAS PRIETA,8.8833333,-75.7,20,15/08/1978,15/02/2002,point,POINTZ(-75.7 8.8833333 20),GEOCOL2004,atmosphere,1,2
234,234,AREA OPERATIVA 02,IDEAM,13070170,BUENOS AIRES 1  ,METEOROLOGICA,PLUVIOMETRICA,weatherStation,ACTIVA,CÓRDOBA,SAN CARLOS,CNO AGUAS PRIETA,8.7727778,-75.7497222,9,15/08/1978,,point,POINTZ(-75.7497222 8.7727778 9),GEOCOL2004,atmosphere,1,2
235,235,AREA OPERATIVA 02,IDEAM,13070180,CARRILLO ,METEOROLOGICA,PLUVIOMETRICA,weatherStation,ACTIVA,CÓRDOBA,SAN PELAYO,SINU,8.9844444,-75.8317778,20,15/03/1979,,point,POINTZ(-75.8317778 8.9844444 20),GEOCOL2004,atmosphere,1,2
236,236,AREA OPERATIVA 02,IDEAM,13070190,COROZA 2   ,METEOROLOGICA,PLUVIOMETRICA,weatherStation,ACTIVA,CÓRDOBA,SAN CARLOS,SINU,8.8047222,-75.765,9,15/08/1974,,point,POINTZ(-75.765 8.8047222 9),GEOCOL2004,atmosphere,1,2
237,237,AREA OPERATIVA 02,IDEAM,13070200,COROCITO ,METEOROLOGICA,PLUVIOMETRICA,weatherStation,SUSPENDIDA,CÓRDOBA,SAN PELAYO,SINU,8.95,-75.8,20,15/03/1979,15/02/2002,point,POINTZ(-75.8 8.95 20),GEOCOL2004,atmosphere,1,2
238,238,AREA OPERATIVA 02,IDEAM,13070210,COTORRA ,METEOROLOGICA,PLUVIOMETRICA,weatherStation,SUSPENDIDA,CÓRDOBA,COTORRA,SINU,9.0333333,-75.7833333,20,15/03/1979,15/02/2002,point,POINTZ(-75.7833333 9.0333333 20),GEOCOL2004,atmosphere,1,2
239,239,AREA OPERATIVA 02,IDEAM,13070220,FLOR DEL SINU ,METEOROLOGICA,PLUVIOMETRICA,weatherStation,SUSPENDIDA,CÓRDOBA,MONTERÍA,SINU,8.8166667,-75.85,13,15/08/1974,15/02/2002,point,POINTZ(-75.85 8.8166667 13),GEOCOL2004,atmosphere,1,2
240,240,AREA OPERATIVA 02,IDEAM,13070230,HORIZONTE ,METEOROLOGICA,PLUVIOMETRICA,weatherStation,SUSPENDIDA,CÓRDOBA,MONTERÍA,SINU,8.7666667,-75.8666667,10,15/08/1974,15/02/2002,point,POINTZ(-75.8666667 8.7666667 10),GEOCOL2004,atmosphere,1,2
241,241,AREA OPERATIVA 02,IDEAM,13070240,CERRO BAHIA ,METEOROLOGICA,PLUVIOMETRICA,weatherStation,SUSPENDIDA,CÓRDOBA,LORICA,SINU,9.3,-75.85,50,15/11/1974,15/06/2002,point,POINTZ(-75.85 9.3 50),GEOCOL2004,atmosphere,1,2
242,242,AREA OPERATIVA 02,IDEAM,13070250,TRAPICHE EL ,METEOROLOGICA,PLUVIOMETRICA,weatherStation,SUSPENDIDA,CÓRDOBA,LORICA,SINU,9.3166667,-75.8833333,4,15/05/1979,15/06/2002,point,POINTZ(-75.8833333 9.3166667 4),GEOCOL2004,atmosphere,1,2
243,243,AREA OPERATIVA 02,IDEAM,13070260,LAMAS 3 ,METEOROLOGICA,PLUVIOMETRICA,weatherStation,SUSPENDIDA,CÓRDOBA,MONTERÍA,SINU,8.7333333,-75.85,18,15/08/1978,15/05/2002,point,POINTZ(-75.85 8.7333333 18),GEOCOL2004,atmosphere,1,2
244,244,AREA OPERATIVA 02,IDEAM,13070270,MONTERIA ,METEOROLOGICA,PLUVIOMETRICA,weatherStation,SUSPENDIDA,CÓRDOBA,MONTERÍA,SINU,8.8265278,-75.8418333,17,15/08/1974,18/08/2010,point,POINTZ(-75.8418333 8.8265278 17),GEOCOL2004,atmosphere,1,2
245,245,AREA OPERATIVA 02,IDEAM,13070280,SABANAL    ,METEOROLOGICA,PLUVIOMETRICA,weatherStation,ACTIVA,CÓRDOBA,MONTERÍA,SINU,8.7886111,-75.7513889,10,15/06/1978,,point,POINTZ(-75.7513889 8.7886111 10),GEOCOL2004,atmosphere,1,2
246,246,AREA OPERATIVA 02,IDEAM,13070290,TAMPA    ,METEOROLOGICA,PLUVIOMETRICA,weatherStation,ACTIVA,CÓRDOBA,MONTERÍA,SINU,8.6247222,-75.7672222,20,15/05/1978,,point,POINTZ(-75.7672222 8.6247222 20),GEOCOL2004,atmosphere,1,2
247,247,AREA OPERATIVA 02,IDEAM,13070300,CHIMA ,METEOROLOGICA,PLUVIOMETRICA,weatherStation,SUSPENDIDA,CÓRDOBA,CHIMA,AY AGUAS PRIETAS,9.15,-75.6166667,30,15/09/1958,15/10/1973,point,POINTZ(-75.6166667 9.15 30),GEOCOL2004,atmosphere,1,2
249,249,AREA OPERATIVA 02,IDEAM,13070320,CHIMA ,METEOROLOGICA,PLUVIOMETRICA,weatherStation,SUSPENDIDA,CÓRDOBA,CHIMA,AY AGUAS PRIETAS,9.15075,-75.6220833,20,15/06/1965,15/11/1969,point,POINTZ(-75.6220833 9.15075 20),GEOCOL2004,atmosphere,1,2
251,251,AREA OPERATIVA 02,IDEAM,13070340,PALMA DE VINO ,METEOROLOGICA,PLUVIOMETRICA,weatherStation,SUSPENDIDA,CÓRDOBA,MONTERÍA,SINU,8.7333333,-75.8,20,15/08/1978,15/05/2002,point,POINTZ(-75.8 8.7333333 20),GEOCOL2004,atmosphere,1,2
252,252,AREA OPERATIVA 02,IDEAM,13070380,CERETE ,METEOROLOGICA,PLUVIOMETRICA,weatherStation,SUSPENDIDA,CÓRDOBA,CERETÉ,CNO BUGRE,8.8850833,-75.7974167,20,15/04/1954,15/12/1960,point,POINTZ(-75.7974167 8.8850833 20),GEOCOL2004,atmosphere,1,2
253,253,AREA OPERATIVA 02,IDEAM,13070420,CNO EL MUERTO ,METEOROLOGICA,PLUVIOMETRICA,weatherStation,SUSPENDIDA,CÓRDOBA,LORICA,SINU,9.3,-75.85,50,15/10/1964,15/10/1973,point,POINTZ(-75.85 9.3 50),GEOCOL2004,atmosphere,1,2
254,254,AREA OPERATIVA 02,IDEAM,13070430,VENECIA ,METEOROLOGICA,PLUVIOMETRICA,weatherStation,ACTIVA,CÓRDOBA,SAN ANDRÉS DE ,AY MAPURINCE,9.1952778,-75.5411111,50,15/08/1987,,point,POINTZ(-75.5411111 9.1952778 50),GEOCOL2004,atmosphere,1,2
255,255,AREA OPERATIVA 02,IDEAM,13070440,VILLA MARCELA ,METEOROLOGICA,PLUVIOMETRICA,weatherStation,ACTIVA,CÓRDOBA,SAN ANTERO,CNO BIJAO,9.3522222,-75.7188889,40,15/07/1988,,point,POINTZ(-75.7188889 9.3522222 40),GEOCOL2004,atmosphere,1,2
256,256,AREA OPERATIVA 02,IDEAM,13070450,AGUAS MOHOSAS   ,METEOROLOGICA,PLUVIOMETRICA,weatherStation,ACTIVA,CÓRDOBA,SAN ANDRÉS DE ,LAGO AGUAS MOHOS,9.2511111,-75.4916667,75,15/08/1986,,point,POINTZ(-75.4916667 9.2511111 75),GEOCOL2004,atmosphere,1,2
257,257,AREA OPERATIVA 02,IDEAM,13070520,MOMIL ,METEOROLOGICA,PLUVIOMETRICA,weatherStation,ACTIVA,CÓRDOBA,MOMIL,CGA. GRANDE,9.2388889,-75.6763889,8,15/02/1963,,point,POINTZ(-75.6763889 9.2388889 8),GEOCOL2004,atmosphere,1,2
292,292,AREA OPERATIVA 02,IDEAM,13080010,SAN ANTONIO ,METEOROLOGICA,PLUVIOMETRICA,weatherStation,ACTIVA,CÓRDOBA,SAN PELAYO,SINU,8.9358611,-75.9533333,50,15/09/1965,,point,POINTZ(-75.9533333 8.9358611 50),GEOCOL2004,atmosphere,1,2
293,293,AREA OPERATIVA 02,IDEAM,13080020,LORICA ,METEOROLOGICA,PLUVIOMETRICA,weatherStation,SUSPENDIDA,CÓRDOBA,LORICA,SINU,9.25,-75.8333333,80,15/01/1958,15/10/1972,point,POINTZ(-75.8333333 9.25 80),GEOCOL2004,atmosphere,1,2
295,295,AREA OPERATIVA 02,IDEAM,13080040,LORICA ,METEOROLOGICA,PLUVIOMETRICA,weatherStation,SUSPENDIDA,CÓRDOBA,LORICA,SINU,9.25,-75.8333333,80,15/01/1934,15/12/1958,point,POINTZ(-75.8333333 9.25 80),GEOCOL2004,atmosphere,1,2
296,296,AREA OPERATIVA 02,IDEAM,13080060,DOCTRINA LA ,METEOROLOGICA,PLUVIOMETRICA,weatherStation,SUSPENDIDA,CÓRDOBA,LORICA,SINU,9.3,-75.8833333,4,15/09/1964,15/03/1970,point,POINTZ(-75.8833333 9.3 4),GEOCOL2004,atmosphere,1,2
303,303,AREA OPERATIVA 02,IDEAM,13090010,SABANETICA ,METEOROLOGICA,PLUVIOMETRICA,weatherStation,ACTIVA,SUCRE,SAN ONOFRE,MAR CARIBE,9.8288889,-75.4327778,1,15/04/1974,,point,POINTZ(-75.4327778 9.8288889 1),GEOCOL2004,atmosphere,1,2
304,304,AREA OPERATIVA 02,IDEAM,13090020,SAN ONOFRE   ,METEOROLOGICA,PLUVIOMETRICA,weatherStation,ACTIVA,SUCRE,SAN ONOFRE,AY CASCAJO,9.7541667,-75.5380556,55,15/05/1959,,point,POINTZ(-75.5380556 9.7541667 55),GEOCOL2004,atmosphere,1,2
305,305,AREA OPERATIVA 02,IDEAM,13090030,BERRUGAS ,METEOROLOGICA,PLUVIOMETRICA,weatherStation,ACTIVA,SUCRE,SAN ONOFRE,MAR CARIBE,9.9102778,-75.6005556,1,15/04/1974,,point,POINTZ(-75.6005556 9.9102778 1),GEOCOL2004,atmosphere,1,2
306,306,AREA OPERATIVA 02,IDEAM,13090040,CHALAN ,METEOROLOGICA,PLUVIOMETRICA,weatherStation,ACTIVA,SUCRE,CHALÁN,AY PECHELIN,9.5386111,-75.3225,100,15/08/1974,,point,POINTZ(-75.3225 9.5386111 100),GEOCOL2004,atmosphere,1,2
307,307,AREA OPERATIVA 02,IDEAM,13090050,TOLUVIEJO    ,METEOROLOGICA,PLUVIOMETRICA,weatherStation,ACTIVA,SUCRE,TOLUVIEJO,AY PECHELIN,9.4383889,-75.4402778,51,15/04/1974,,point,POINTZ(-75.4402778 9.4383889 51),GEOCOL2004,atmosphere,1,2
308,308,AREA OPERATIVA 02,IDEAM,13090060,PARAISO EL   ,METEOROLOGICA,PLUVIOMETRICA,weatherStation,ACTIVA,SUCRE,COLOSÓ,AY PECHELIN,9.4738889,-75.3708333,100,15/05/1986,,point,POINTZ(-75.3708333 9.4738889 100),GEOCOL2004,atmosphere,1,2
309,309,AREA OPERATIVA 02,IDEAM,13090070,TOLU    ,METEOROLOGICA,PLUVIOMETRICA,weatherStation,ACTIVA,SUCRE,TOLÚ,MAR CARIBE,9.5191667,-75.5911111,2,15/09/1958,,point,POINTZ(-75.5911111 9.5191667 2),GEOCOL2004,atmosphere,1,2
310,310,AREA OPERATIVA 02,IDEAM,13090080,BELEN HDA ,METEOROLOGICA,PLUVIOMETRICA,weatherStation,ACTIVA,SUCRE,SAN ONOFRE,AY CUCALITO,9.8194444,-75.4102778,60,15/12/1978,,point,POINTZ(-75.4102778 9.8194444 60),GEOCOL2004,atmosphere,1,2
311,311,AREA OPERATIVA 02,IDEAM,13090090,STA ANGELA HDA ,METEOROLOGICA,PLUVIOMETRICA,weatherStation,ACTIVA,SUCRE,TOLÚ,AY PUERQUERA,9.4852778,-75.5125,20,15/02/1978,,point,POINTZ(-75.5125 9.4852778 20),GEOCOL2004,atmosphere,1,2
312,312,AREA OPERATIVA 02,IDEAM,13090100,ARGENTINA LA HDA ,METEOROLOGICA,PLUVIOMETRICA,weatherStation,ACTIVA,SUCRE,TOLUVIEJO,AY PUERQUERA,9.4858333,-75.4686111,20,15/02/1978,,point,POINTZ(-75.4686111 9.4858333 20),GEOCOL2004,atmosphere,1,2
313,313,AREA OPERATIVA 02,IDEAM,13090110,PALO ALTO ,METEOROLOGICA,PLUVIOMETRICA,weatherStation,ACTIVA,SUCRE,SAN ONOFRE,AY GUAYABAL,9.8175,-75.4183333,50,15/02/1978,,point,POINTZ(-75.4183333 9.8175 50),GEOCOL2004,atmosphere,1,2
314,314,AREA OPERATIVA 02,IDEAM,13090230,PASTORA LA   ,METEOROLOGICA,PLUVIOMETRICA,weatherStation,ACTIVA,SUCRE,SINCELEJO,LAGO LA PASTORA,9.2933333,-75.4919444,58,15/11/1990,,point,POINTZ(-75.4919444 9.2933333 58),GEOCOL2004,atmosphere,1,2
325,325,AREA OPERATIVA 02,IDEAM,14010020,HIBACHARO ,METEOROLOGICA,PLUVIOMETRICA,weatherStation,ACTIVA,ATLÁNTICO,PIOJÓ,AY GALLINAZO,10.7218889,-75.1401111,80,15/01/1963,,point,POINTZ(-75.1401111 10.7218889 80),GEOCOL2004,atmosphere,1,2
326,326,AREA OPERATIVA 02,IDEAM,14010030,BAYUNCA ,METEOROLOGICA,PLUVIOMETRICA,weatherStation,ACTIVA,BOLÍVAR,CARTAGENA DE INDIAS,AY BARRO,10.5241667,-75.4013889,35,15/05/1974,,point,POINTZ(-75.4013889 10.5241667 35),GEOCOL2004,atmosphere,1,2
328,328,AREA OPERATIVA 02,IDEAM,14010050,CANAVERAL ,METEOROLOGICA,PLUVIOMETRICA,weatherStation,ACTIVA,BOLÍVAR,TURBACO,AY CAIMAN,10.405,-75.3375,75,15/05/1974,,point,POINTZ(-75.3375 10.405 75),GEOCOL2004,atmosphere,1,2
329,329,AREA OPERATIVA 02,IDEAM,14010090,PORVENIR EL ,METEOROLOGICA,PLUVIOMETRICA,weatherStation,ACTIVA,ATLÁNTICO,PIOJÓ,CGA. EL TOTUMO,10.7102222,-75.1622778,40,15/07/1988,,point,POINTZ(-75.1622778 10.7102222 40),GEOCOL2004,atmosphere,1,2
330,330,AREA OPERATIVA 02,IDEAM,14010100,PINTADA LA ,METEOROLOGICA,PLUVIOMETRICA,weatherStation,ACTIVA,ATLÁNTICO,TUBARÁ,MAR CARIBE,10.9551111,-74.995,200,15/12/1992,,point,POINTZ(-74.995 10.9551111 200),GEOCOL2004,atmosphere,1,2
343,343,AREA OPERATIVA 05,IDEAM,15010010,MINCA ,METEOROLOGICA,PLUVIOMETRICA,weatherStation,ACTIVA,MAGDALENA,SANTA MARTA,QDA BACHICHA,11.1408333,-74.12,640,15/11/1962,,point,POINTZ(-74.12 11.1408333 640),GEOCOL2004,atmosphere,1,2
344,344,AREA OPERATIVA 05,IDEAM,15010020,BURITACA    ,METEOROLOGICA,PLUVIOMETRICA,weatherStation,ACTIVA,MAGDALENA,SANTA MARTA,BURITACA,11.2501306,-73.76475,30,15/10/1973,,point,POINTZ(-73.76475 11.2501306 30),GEOCOL2004,atmosphere,1,2
346,346,AREA OPERATIVA 05,IDEAM,15010040,VISTA NIEVES   ,METEOROLOGICA,PLUVIOMETRICA,weatherStation,ACTIVA,MAGDALENA,SANTA MARTA,GUACHACA,11.0853611,-74.0798611,2000,15/09/1973,,point,POINTZ(-74.0798611 11.0853611 2000),GEOCOL2004,atmosphere,1,2
347,347,AREA OPERATIVA 05,IDEAM,15010050,CIENAGA GRANDE ,METEOROLOGICA,PLUVIOMETRICA,weatherStation,SUSPENDIDA,MAGDALENA,CIÉNAGA,MAR CARIBE,11,-74.25,20,15/03/1967,15/03/1978,point,POINTZ(-74.25 11 20),GEOCOL2004,atmosphere,1,2
348,348,AREA OPERATIVA 05,IDEAM,15010070,FILTRO DE AGUA ,METEOROLOGICA,PLUVIOMETRICA,weatherStation,SUSPENDIDA,MAGDALENA,CIÉNAGA,MAR CARIBE,11.0166667,-74.2333333,25,15/03/1967,15/10/1974,point,POINTZ(-74.2333333 11.0166667 25),GEOCOL2004,atmosphere,1,2
349,349,AREA OPERATIVA 05,IDEAM,15010100,PLTA GAIRA ,METEOROLOGICA,PLUVIOMETRICA,weatherStation,SUSPENDIDA,MAGDALENA,SANTA MARTA,MAR CARIBE,11.1833333,-74.1666667,150,15/05/1964,15/09/1971,point,POINTZ(-74.1666667 11.1833333 150),GEOCOL2004,atmosphere,1,2
350,350,AREA OPERATIVA 05,IDEAM,15010140,TORRE TV ,METEOROLOGICA,PLUVIOMETRICA,weatherStation,SUSPENDIDA,MAGDALENA,SANTA MARTA,GUACHACA,11.1166667,-74.0333333,2700,15/05/1964,15/09/1971,point,POINTZ(-74.0333333 11.1166667 2700),GEOCOL2004,atmosphere,1,2
351,351,AREA OPERATIVA 05,IDEAM,15010150,TAGUA LA ,METEOROLOGICA,PLUVIOMETRICA,weatherStation,SUSPENDIDA,MAGDALENA,SANTA MARTA,GUACHACA,11.1166667,-74.05,2600,15/09/1967,15/09/1971,point,POINTZ(-74.05 11.1166667 2600),GEOCOL2004,atmosphere,1,2
352,352,AREA OPERATIVA 05,IDEAM,15010160,DELICIAS LAS ,METEOROLOGICA,PLUVIOMETRICA,weatherStation,SUSPENDIDA,MAGDALENA,SANTA MARTA,GUACHACA,11.1166667,-74.1333333,900,15/05/1964,15/12/1971,point,POINTZ(-74.1333333 11.1166667 900),GEOCOL2004,atmosphere,1,2
353,353,AREA OPERATIVA 05,IDEAM,15010170,ONACA ,METEOROLOGICA,PLUVIOMETRICA,weatherStation,SUSPENDIDA,MAGDALENA,SANTA MARTA,GUACHACA,11.1997222,-73.8402778,900,15/04/1965,15/09/1971,point,POINTZ(-73.8402778 11.1997222 900),GEOCOL2004,atmosphere,1,2
354,354,AREA OPERATIVA 05,IDEAM,15010190,CACAOS LOS ,METEOROLOGICA,PLUVIOMETRICA,weatherStation,SUSPENDIDA,MAGDALENA,SANTA MARTA,GUACHACA,11.2,-74.0833333,500,15/04/1965,15/09/1971,point,POINTZ(-74.0833333 11.2 500),GEOCOL2004,atmosphere,1,2
355,355,AREA OPERATIVA 05,IDEAM,15010200,PLASTICOS MAGDALEN ,METEOROLOGICA,PLUVIOMETRICA,weatherStation,SUSPENDIDA,MAGDALENA,SANTA MARTA,GUACHACA,11.2,-74.2,20,15/01/1965,15/09/1971,point,POINTZ(-74.2 11.2 20),GEOCOL2004,atmosphere,1,2
356,356,AREA OPERATIVA 05,IDEAM,15010240,CUBILETE EL BONDA ,METEOROLOGICA,PLUVIOMETRICA,weatherStation,SUSPENDIDA,MAGDALENA,SANTA MARTA,GUACHACA,11.2333333,-74.15,50,15/02/1965,15/09/1971,point,POINTZ(-74.15 11.2333333 50),GEOCOL2004,atmosphere,1,2
357,357,AREA OPERATIVA 05,IDEAM,15010250,SAN PEDRO ALEJANDR ,METEOROLOGICA,PLUVIOMETRICA,weatherStation,SUSPENDIDA,MAGDALENA,SANTA MARTA,GUACHACA,11.2333333,-74.1833333,20,15/05/1964,15/09/1971,point,POINTZ(-74.1833333 11.2333333 20),GEOCOL2004,atmosphere,1,2
359,359,AREA OPERATIVA 05,IDEAM,15010310,FILO CARTAGENA   ,METEOROLOGICA,PLUVIOMETRICA,weatherStation,ACTIVA,MAGDALENA,SANTA MARTA,GUACHACA,11.1002778,-73.8432222,750,24/11/2006,,point,POINTZ(-73.8432222 11.1002778 750),GEOCOL2004,atmosphere,1,2
360,360,AREA OPERATIVA 05,IDEAM,15010501,IDEAM SANTA MARTA ,METEOROLOGICA,PLUVIOMETRICA,weatherStation,ACTIVA,MAGDALENA,SANTA MARTA,MANZANARES,11.2222222,-74.1799167,20,,,point,POINTZ(-74.1799167 11.2222222 20),GEOCOL2004,atmosphere,1,2
379,379,AREA OPERATIVA 05,IDEAM,15020010,ALTO RIO DON DIEGO ,METEOROLOGICA,PLUVIOMETRICA,weatherStation,SUSPENDIDA,MAGDALENA,SANTA MARTA,DON DIEGO,11.2666667,-73.6833333,480,15/12/1973,15/12/1979,point,POINTZ(-73.6833333 11.2666667 480),GEOCOL2004,atmosphere,1,2
381,381,AREA OPERATIVA 05,IDEAM,15030010,DIBULLA    ,METEOROLOGICA,PLUVIOMETRICA,weatherStation,ACTIVA,LA GUAJIRA,DIBULLA,DIBULLA,11.2752222,-73.3121944,5,15/08/1958,,point,POINTZ(-73.3121944 11.2752222 5),GEOCOL2004,atmosphere,1,2
382,382,AREA OPERATIVA 05,IDEAM,15030020,PALOMINO    ,METEOROLOGICA,PLUVIOMETRICA,weatherStation,ACTIVA,MAGDALENA,SANTA MARTA,PALOMINO,11.2441667,-73.5738889,30,15/04/1961,,point,POINTZ(-73.5738889 11.2441667 30),GEOCOL2004,atmosphere,1,2
383,383,AREA OPERATIVA 05,IDEAM,15030030,ALTO RIO DIBULLA ,METEOROLOGICA,PLUVIOMETRICA,weatherStation,SUSPENDIDA,LA GUAJIRA,DIBULLA,DIBULLA,11.1166667,-73.3,390,15/10/1973,15/04/1979,point,POINTZ(-73.3 11.1166667 390),GEOCOL2004,atmosphere,1,2
384,384,AREA OPERATIVA 05,IDEAM,15030040,ALTO RIO ANCHO ,METEOROLOGICA,PLUVIOMETRICA,weatherStation,SUSPENDIDA,LA GUAJIRA,DIBULLA,ANCHO,11.0666667,-73.4666667,220,15/10/1973,15/11/1993,point,POINTZ(-73.4666667 11.0666667 220),GEOCOL2004,atmosphere,1,2
385,385,AREA OPERATIVA 05,IDEAM,15030050,CERRO CUBA ,METEOROLOGICA,PLUVIOMETRICA,weatherStation,SUSPENDIDA,LA GUAJIRA,DIBULLA,AY SAN PEDRO,11.0666667,-73.4,400,15/10/1973,15/11/1993,point,POINTZ(-73.4 11.0666667 400),GEOCOL2004,atmosphere,1,2
391,391,AREA OPERATIVA 05,IDEAM,15040010,ALTO RIO CORUAL ,METEOROLOGICA,PLUVIOMETRICA,weatherStation,SUSPENDIDA,LA GUAJIRA,RIOHACHA,CORUAL,11.2333333,-73.15,200,15/10/1973,15/11/1993,point,POINTZ(-73.15 11.2333333 200),GEOCOL2004,atmosphere,1,2
392,392,AREA OPERATIVA 05,IDEAM,15040020,JUANA VIEJA ,METEOROLOGICA,PLUVIOMETRICA,weatherStation,SUSPENDIDA,LA GUAJIRA,SAN JUAN DEL CESAR,AY GUASIMO,11.1166667,-73.05,1100,15/05/1971,15/12/1978,point,POINTZ(-73.05 11.1166667 1100),GEOCOL2004,atmosphere,1,2
393,393,AREA OPERATIVA 05,IDEAM,15040030,RIO SAN FRANCISCO ,METEOROLOGICA,PLUVIOMETRICA,weatherStation,SUSPENDIDA,LA GUAJIRA,RIOHACHA,AY MANDINGA,11.1166667,-72.9833333,180,15/11/1973,15/11/1993,point,POINTZ(-72.9833333 11.1166667 180),GEOCOL2004,atmosphere,1,2
397,397,AREA OPERATIVA 05,IDEAM,15050010,CAMARONES ,METEOROLOGICA,PLUVIOMETRICA,weatherStation,ACTIVA,LA GUAJIRA,RIOHACHA,CAMARONES,11.4288333,-73.0527222,5,15/09/1971,,point,POINTZ(-73.0527222 11.4288333 5),GEOCOL2004,atmosphere,1,2
398,398,AREA OPERATIVA 05,IDEAM,15050020,FLORIDA LA ,METEOROLOGICA,PLUVIOMETRICA,weatherStation,SUSPENDIDA,LA GUAJIRA,RIOHACHA,CAMARONES,11.25,-72.9166667,46,15/05/1968,15/01/1970,point,POINTZ(-72.9166667 11.25 46),GEOCOL2004,atmosphere,1,2
400,400,AREA OPERATIVA 05,IDEAM,15060010,REMEDIOS LOS   ,METEOROLOGICA,PLUVIOMETRICA,weatherStation,ACTIVA,LA GUAJIRA,RIOHACHA,AY LOS MELONES,11.3817778,-72.9135,10,15/09/1971,,point,POINTZ(-72.9135 11.3817778 10),GEOCOL2004,atmosphere,1,2
401,401,AREA OPERATIVA 05,IDEAM,15060020,CUESTECITA    ,METEOROLOGICA,PLUVIOMETRICA,weatherStation,ACTIVA,LA GUAJIRA,ALBANIA,AY EL SALADO,11.1973889,-72.6118056,93,15/05/1959,,point,POINTZ(-72.6118056 11.1973889 93),GEOCOL2004,atmosphere,1,2
402,402,AREA OPERATIVA 05,IDEAM,15060030,CRUZ LA HDA ,METEOROLOGICA,PLUVIOMETRICA,weatherStation,SUSPENDIDA,LA GUAJIRA,BARRANCAS,AY PELOMONO,10.9666667,-72.7666667,195,15/06/1971,15/12/1985,point,POINTZ(-72.7666667 10.9666667 195),GEOCOL2004,atmosphere,1,2
403,403,AREA OPERATIVA 05,IDEAM,15060040,LAGUNITAS    ,METEOROLOGICA,PLUVIOMETRICA,weatherStation,ACTIVA,LA GUAJIRA,BARRANCAS,AY AGUADA PICA,11.0343611,-72.8775278,900,15/05/1971,,point,POINTZ(-72.8775278 11.0343611 900),GEOCOL2004,atmosphere,1,2
404,404,AREA OPERATIVA 05,IDEAM,15060050,SABANAS DE MANUELA ,METEOROLOGICA,PLUVIOMETRICA,weatherStation,ACTIVA,LA GUAJIRA,DISTRACCIÓN,AY LA MONTANA,10.953,-73.0479722,420,15/08/1963,,point,POINTZ(-73.0479722 10.953 420),GEOCOL2004,atmosphere,1,2
405,405,AREA OPERATIVA 05,IDEAM,15060060,LOMITAS LAS ,METEOROLOGICA,PLUVIOMETRICA,weatherStation,ACTIVA,LA GUAJIRA,BARRANCAS,AY HONDO,10.9351667,-72.6846667,300,15/05/1971,,point,POINTZ(-72.6846667 10.9351667 300),GEOCOL2004,atmosphere,1,2
406,406,AREA OPERATIVA 05,IDEAM,15060070,JUGUETE EL ,METEOROLOGICA,PLUVIOMETRICA,weatherStation,SUSPENDIDA,LA GUAJIRA,FONSECA,GUATAPURI,10.786,-72.7683611,390,15/05/1971,28/08/2014,point,POINTZ(-72.7683611 10.786 390),GEOCOL2004,atmosphere,1,2
407,407,AREA OPERATIVA 05,IDEAM,15060080,CANAVERALES    ,METEOROLOGICA,PLUVIOMETRICA,weatherStation,ACTIVA,LA GUAJIRA,SAN JUAN DEL CESAR,RANCHERIA,10.7577778,-72.8452222,230,15/08/1963,,point,POINTZ(-72.8452222 10.7577778 230),GEOCOL2004,atmosphere,1,2
409,409,AREA OPERATIVA 05,IDEAM,15060100,POZO HONDO   ,METEOROLOGICA,PLUVIOMETRICA,weatherStation,ACTIVA,LA GUAJIRA,BARRANCAS,AY POZO HONDO,10.9985556,-72.8195556,210,15/07/1987,,point,POINTZ(-72.8195556 10.9985556 210),GEOCOL2004,atmosphere,1,2
410,410,AREA OPERATIVA 05,IDEAM,15060110,EJEMPLO EL ,METEOROLOGICA,PLUVIOMETRICA,weatherStation,SUSPENDIDA,LA GUAJIRA,HATO NUEVO,AY TABACO,11.1333333,-72.6,116,15/06/1978,15/02/1996,point,POINTZ(-72.6 11.1333333 116),GEOCOL2004,atmosphere,1,2
414,414,AREA OPERATIVA 05,IDEAM,15060150,CONEJO EL ,METEOROLOGICA,PLUVIOMETRICA,weatherStation,ACTIVA,LA GUAJIRA,FONSECA,RANCHERIA,10.7779444,-72.7981944,350,15/10/1975,,point,POINTZ(-72.7981944 10.7779444 350),GEOCOL2004,atmosphere,1,2
416,416,AREA OPERATIVA 05,IDEAM,15060170,ABRE EL OJO ,METEOROLOGICA,PLUVIOMETRICA,weatherStation,SUSPENDIDA,LA GUAJIRA,BARRANCAS,RANCHERIA,11,-72.6666667,200,15/04/1973,15/11/1974,point,POINTZ(-72.6666667 11 200),GEOCOL2004,atmosphere,1,2
417,417,AREA OPERATIVA 05,IDEAM,15060180,GLORIA LA   ,METEOROLOGICA,PLUVIOMETRICA,weatherStation,ACTIVA,LA GUAJIRA,HATO NUEVO,RANCHERIA,11.1380278,-72.7115,680,15/08/1987,,point,POINTZ(-72.7115 11.1380278 680),GEOCOL2004,atmosphere,1,2
418,418,AREA OPERATIVA 05,IDEAM,15060190,FONSECA ,METEOROLOGICA,PLUVIOMETRICA,weatherStation,SUSPENDIDA,LA GUAJIRA,FONSECA,AY GUATAPURI,10.9,-72.8333333,180,15/06/1955,15/10/1974,point,POINTZ(-72.8333333 10.9 180),GEOCOL2004,atmosphere,1,2
421,421,AREA OPERATIVA 05,IDEAM,15060230,ARROYO ARENA ,METEOROLOGICA,PLUVIOMETRICA,weatherStation,SUSPENDIDA,LA GUAJIRA,RIOHACHA,AY ARENA,11.2833333,-72.8833333,58,15/05/1966,15/11/1971,point,POINTZ(-72.8833333 11.2833333 58),GEOCOL2004,atmosphere,1,2
422,422,AREA OPERATIVA 05,IDEAM,15060260,ANTILLAS LAS ,METEOROLOGICA,PLUVIOMETRICA,weatherStation,SUSPENDIDA,LA GUAJIRA,FONSECA,GUATAPURI,10.8833333,-72.8833333,170,15/10/1976,15/01/1977,point,POINTZ(-72.8833333 10.8833333 170),GEOCOL2004,atmosphere,1,2
423,423,AREA OPERATIVA 05,IDEAM,15060270,ARENA LA   ,METEOROLOGICA,PLUVIOMETRICA,weatherStation,ACTIVA,LA GUAJIRA,RIOHACHA,AY GUACOA,11.1891389,-72.7279167,120,15/10/1978,,point,POINTZ(-72.7279167 11.1891389 120),GEOCOL2004,atmosphere,1,2
424,424,AREA OPERATIVA 05,IDEAM,15060280,CERREJON CARBOCOL ,METEOROLOGICA,PLUVIOMETRICA,weatherStation,SUSPENDIDA,LA GUAJIRA,BARRANCAS,AY LATA,11,-72.6666667,150,15/01/1981,15/08/1983,point,POINTZ(-72.6666667 11 150),GEOCOL2004,atmosphere,1,2
471,471,AREA OPERATIVA 05,IDEAM,15070010,SANTANA URRAICH   ,METEOROLOGICA,PLUVIOMETRICA,weatherStation,ACTIVA,LA GUAJIRA,URIBIA,AY PURARAPU,12.0865833,-72.0501944,30,15/08/1971,,point,POINTZ(-72.0501944 12.0865833 30),GEOCOL2004,atmosphere,1,2
472,472,AREA OPERATIVA 05,IDEAM,15070020,NUEVO AMBIENTE   ,METEOROLOGICA,PLUVIOMETRICA,weatherStation,ACTIVA,LA GUAJIRA,URIBIA,AY AMAIJUI,12.3439167,-71.8191944,39,15/07/1971,,point,POINTZ(-71.8191944 12.3439167 39),GEOCOL2004,atmosphere,1,2
473,473,AREA OPERATIVA 05,IDEAM,15070030,SAN FRANCISCO ,METEOROLOGICA,PLUVIOMETRICA,weatherStation,SUSPENDIDA,LA GUAJIRA,URIBIA,AY PUCHIPAHANA,12.3166667,-71.5,25,15/09/1971,15/10/1979,point,POINTZ(-71.5 12.3166667 25),GEOCOL2004,atmosphere,1,2
474,474,AREA OPERATIVA 05,IDEAM,15070040,PORTETE JAYARIMA ,METEOROLOGICA,PLUVIOMETRICA,weatherStation,SUSPENDIDA,LA GUAJIRA,URIBIA,AY PARIYEHEIN,12.35,-71.7166667,50,15/08/1971,15/10/1979,point,POINTZ(-71.7166667 12.35 50),GEOCOL2004,atmosphere,1,2
475,475,AREA OPERATIVA 05,IDEAM,15070050,CARIMAYA ,METEOROLOGICA,PLUVIOMETRICA,weatherStation,SUSPENDIDA,LA GUAJIRA,URIBIA,AY JEPEPA,12.2,-71.7333333,50,15/07/1971,15/10/1979,point,POINTZ(-71.7333333 12.2 50),GEOCOL2004,atmosphere,1,2
476,476,AREA OPERATIVA 05,IDEAM,15070060,BUENOS AIRES   ,METEOROLOGICA,PLUVIOMETRICA,weatherStation,ACTIVA,LA GUAJIRA,URIBIA,AY ERRUMAJAMA,12.2734167,-71.4158889,40,15/07/1971,,point,POINTZ(-71.4158889 12.2734167 40),GEOCOL2004,atmosphere,1,2
477,477,AREA OPERATIVA 05,IDEAM,15070070,IRRAIPA ,METEOROLOGICA,PLUVIOMETRICA,weatherStation,ACTIVA,LA GUAJIRA,URIBIA,AY MOCHOHOPA,12.1263611,-71.9522778,65,15/08/1971,,point,POINTZ(-71.9522778 12.1263611 65),GEOCOL2004,atmosphere,1,2
478,478,AREA OPERATIVA 05,IDEAM,15070080,KAURAQUIMANA    ,METEOROLOGICA,PLUVIOMETRICA,weatherStation,ACTIVA,LA GUAJIRA,URIBIA,AY SISHIPANA,12.2183611,-71.4586944,35,15/07/1971,,point,POINTZ(-71.4586944 12.2183611 35),GEOCOL2004,atmosphere,1,2
479,479,AREA OPERATIVA 05,IDEAM,15070090,PERPANA ,METEOROLOGICA,PLUVIOMETRICA,weatherStation,ACTIVA,LA GUAJIRA,URIBIA,AY URESH,12.0885556,-71.8193056,65,15/07/1971,,point,POINTZ(-71.8193056 12.0885556 65),GEOCOL2004,atmosphere,1,2
480,480,AREA OPERATIVA 05,IDEAM,15070100,CARRIZAL    ,METEOROLOGICA,PLUVIOMETRICA,weatherStation,ACTIVA,LA GUAJIRA,URIBIA,MAR CARIBE,12.0098889,-72.1801111,5,15/07/1971,,point,POINTZ(-72.1801111 12.0098889 5),GEOCOL2004,atmosphere,1,2
481,481,AREA OPERATIVA 05,IDEAM,15070110,JOJONCITO    ,METEOROLOGICA,PLUVIOMETRICA,weatherStation,ACTIVA,LA GUAJIRA,URIBIA,AY JOJONCITO,11.8114444,-71.9653056,120,15/08/1971,,point,POINTZ(-71.9653056 11.8114444 120),GEOCOL2004,atmosphere,1,2
482,482,AREA OPERATIVA 05,IDEAM,15070120,AHUYAMA ,METEOROLOGICA,PLUVIOMETRICA,weatherStation,SUSPENDIDA,LA GUAJIRA,URIBIA,AY ERRURETUHU,11.8660806,-72.2788278,5,15/08/1971,15/10/2010,point,POINTZ(-72.2788278 11.8660806 5),GEOCOL2004,atmosphere,1,2
483,483,AREA OPERATIVA 05,IDEAM,15070130,PAJARO EL   ,METEOROLOGICA,PLUVIOMETRICA,weatherStation,ACTIVA,LA GUAJIRA,MANAURE,AY ESCOYOROMA,11.7094722,-72.6764167,2,15/08/1971,,point,POINTZ(-72.6764167 11.7094722 2),GEOCOL2004,atmosphere,1,2
484,484,AREA OPERATIVA 05,IDEAM,15070140,MAYAPO ,METEOROLOGICA,PLUVIOMETRICA,weatherStation,ACTIVA,LA GUAJIRA,MANAURE,AY TAGUAYA,11.6502778,-72.78675,3,15/08/1971,,point,POINTZ(-72.78675 11.6502778 3),GEOCOL2004,atmosphere,1,2
485,485,AREA OPERATIVA 05,IDEAM,15070150,CARACAS HDA   ,METEOROLOGICA,PLUVIOMETRICA,weatherStation,ACTIVA,LA GUAJIRA,MANAURE,AY TAGUAYA,11.4821389,-72.5589722,80,15/07/1971,,point,POINTZ(-72.5589722 11.4821389 80),GEOCOL2004,atmosphere,1,2
486,486,AREA OPERATIVA 05,IDEAM,15070160,ESC CEURA   ,METEOROLOGICA,PLUVIOMETRICA,weatherStation,ACTIVA,LA GUAJIRA,MAICAO,AY JUNIO,11.43775,-72.4699722,85,15/06/1971,,point,POINTZ(-72.4699722 11.43775 85),GEOCOL2004,atmosphere,1,2
487,487,AREA OPERATIVA 05,IDEAM,15070170,ITACA ,METEOROLOGICA,PLUVIOMETRICA,weatherStation,SUSPENDIDA,LA GUAJIRA,MAICAO,AY KUISCHI,11.4333333,-72.55,85,15/06/1971,15/10/1980,point,POINTZ(-72.55 11.4333333 85),GEOCOL2004,atmosphere,1,2
488,488,AREA OPERATIVA 05,IDEAM,15070190,CAIMITO    ,METEOROLOGICA,PLUVIOMETRICA,weatherStation,ACTIVA,LA GUAJIRA,URIBIA,AY YORROROKI,12.2691389,-71.5127778,100,15/04/1978,,point,POINTZ(-71.5127778 12.2691389 100),GEOCOL2004,atmosphere,1,2
489,489,AREA OPERATIVA 05,IDEAM,15070200,TUMAMANA ,METEOROLOGICA,PLUVIOMETRICA,weatherStation,SUSPENDIDA,LA GUAJIRA,URIBIA,AY PARIYEHEIM,12.3295,-71.7518889,100,15/01/1979,15/10/2010,point,POINTZ(-71.7518889 12.3295 100),GEOCOL2004,atmosphere,1,2
490,490,AREA OPERATIVA 05,IDEAM,15070230,GUAYABAL ,METEOROLOGICA,PLUVIOMETRICA,weatherStation,SUSPENDIDA,LA GUAJIRA,MAICAO,AY KUISCHI,11.4401111,-72.5537778,85,15/10/1980,28/08/2014,point,POINTZ(-72.5537778 11.4401111 85),GEOCOL2004,atmosphere,1,2
491,491,AREA OPERATIVA 05,IDEAM,15070240,OROCHON    ,METEOROLOGICA,PLUVIOMETRICA,weatherStation,ACTIVA,LA GUAJIRA,URIBIA,JOJONCITO,11.8116389,-72.1906111,100,15/06/1976,,point,POINTZ(-72.1906111 11.8116389 100),GEOCOL2004,atmosphere,1,2
492,492,AREA OPERATIVA 05,IDEAM,15070250,RIOHACHA ,METEOROLOGICA,PLUVIOMETRICA,weatherStation,SUSPENDIDA,LA GUAJIRA,RIOHACHA,AY TAGUAYA,11.5333333,-72.9,5,15/08/1931,15/09/1971,point,POINTZ(-72.9 11.5333333 5),GEOCOL2004,atmosphere,1,2
502,502,AREA OPERATIVA 05,IDEAM,15080010,PTO ESTRELLA   ,METEOROLOGICA,PLUVIOMETRICA,weatherStation,ACTIVA,LA GUAJIRA,URIBIA,MAR CARIBE,12.3453056,-71.3119722,5,15/07/1971,,point,POINTZ(-71.3119722 12.3453056 5),GEOCOL2004,atmosphere,1,2
503,503,AREA OPERATIVA 05,IDEAM,15080020,SIPANAO ,METEOROLOGICA,PLUVIOMETRICA,weatherStation,SUSPENDIDA,LA GUAJIRA,URIBIA,AY WORU,12.1193611,-71.2686944,100,15/07/1971,28/08/2014,point,POINTZ(-71.2686944 12.1193611 100),GEOCOL2004,atmosphere,1,2
504,504,AREA OPERATIVA 05,IDEAM,15080030,TAPARAJIN ,METEOROLOGICA,PLUVIOMETRICA,weatherStation,SUSPENDIDA,LA GUAJIRA,URIBIA,AY IRRUKA,12.0666667,-71.5666667,35,15/07/1971,15/10/1979,point,POINTZ(-71.5666667 12.0666667 35),GEOCOL2004,atmosphere,1,2
505,505,AREA OPERATIVA 05,IDEAM,15080040,SIAPANA    ,METEOROLOGICA,PLUVIOMETRICA,weatherStation,ACTIVA,LA GUAJIRA,URIBIA,AY TOPIO,12.0694722,-71.3185,145,15/07/1971,,point,POINTZ(-71.3185 12.0694722 145),GEOCOL2004,atmosphere,1,2
506,506,AREA OPERATIVA 05,IDEAM,15080050,HUIMPECHT ,METEOROLOGICA,PLUVIOMETRICA,weatherStation,SUSPENDIDA,LA GUAJIRA,MAICAO,AY PARARIO,11.6333333,-72,10,15/07/1971,15/10/1979,point,POINTZ(-72 11.6333333 10),GEOCOL2004,atmosphere,1,2
507,507,AREA OPERATIVA 05,IDEAM,15080060,PARAGUACHON    ,METEOROLOGICA,PLUVIOMETRICA,weatherStation,ACTIVA,LA GUAJIRA,MAICAO,CARRAIPIA,11.3601389,-72.1324444,35,15/07/1971,,point,POINTZ(-72.1324444 11.3601389 35),GEOCOL2004,atmosphere,1,2
508,508,AREA OPERATIVA 05,IDEAM,15080070,SILLAMANA    ,METEOROLOGICA,PLUVIOMETRICA,weatherStation,ACTIVA,LA GUAJIRA,URIBIA,AY JAIRIYU,11.8994167,-71.5158889,115,15/07/1971,,point,POINTZ(-71.5158889 11.8994167 115),GEOCOL2004,atmosphere,1,2
509,509,AREA OPERATIVA 05,IDEAM,15080080,JASAY    ,METEOROLOGICA,PLUVIOMETRICA,weatherStation,SUSPENDIDA,LA GUAJIRA,URIBIA,AY JASALUHU,11.7904167,-71.9647222,35,15/07/1971,06/01/2016 12:00:00 AM,point,POINTZ(-71.9647222 11.7904167 35),GEOCOL2004,atmosphere,1,2
510,510,AREA OPERATIVA 05,IDEAM,15080090,PTO LOPEZ   ,METEOROLOGICA,PLUVIOMETRICA,weatherStation,ACTIVA,LA GUAJIRA,URIBIA,MAR CARIBE,11.9342778,-71.2825,2,15/09/1937,,point,POINTZ(-71.2825 11.9342778 2),GEOCOL2004,atmosphere,1,2
511,511,AREA OPERATIVA 05,IDEAM,15080100,PAN GRANDE ,METEOROLOGICA,PLUVIOMETRICA,weatherStation,SUSPENDIDA,LA GUAJIRA,MAICAO,AY LA CEIBA,11.1,-72.45,250,15/10/1975,15/11/1993,point,POINTZ(-72.45 11.1 250),GEOCOL2004,atmosphere,1,2
